var ratb = {
"type": "FeatureCollection",
"crs": { "type": "name", "properties": { "name": "urn:ogc:def:crs:OGC:1.3:CRS84" } },

"features": [
{ "type": "Feature", "properties": { "gid": 1, "objectid": 1, "f_id": "node\/583423", "railway": "tram_stop", "name": "?oseaua ?tefan cel Mare", "ref": null, "shelter": null, "bus": null, "designatio": null, "wheelchair": null, "trolleybus": null, "x": 26.119680, "y": 44.451610, "nume_mod": "Soseaua Stefan cel Mare", "den_ratb": "SOSEAUA STEFAN CEL MARE", "osm_id": "?oseaua ?tefan cel Mare-1", "ratb_id": "SOSEAUA STEFAN CEL MARE-1" }, "geometry": { "type": "Point", "coordinates": [ 26.119679500208804, 44.451610099726395 ] } },
{ "type": "Feature", "properties": { "gid": 2, "objectid": 2, "f_id": "node\/621093", "railway": "tram_stop", "name": "Muzeul Avia?iei", "ref": "5", "shelter": "no", "bus": null, "designatio": null, "wheelchair": null, "trolleybus": null, "x": 26.106907, "y": 44.475885, "nume_mod": "Muzeul Aviatiei", "den_ratb": "MUZEUL AVIATIEI", "osm_id": "Muzeul Avia?iei-2", "ratb_id": "MUZEUL AVIATIEI-2" }, "geometry": { "type": "Point", "coordinates": [ 26.106906500234857, 44.475885100417088 ] } },
{ "type": "Feature", "properties": { "gid": 3, "objectid": 3, "f_id": "node\/14995001", "railway": "tram_stop", "name": "Ceaikovski", "ref": null, "shelter": null, "bus": null, "designatio": null, "wheelchair": null, "trolleybus": null, "x": 26.108530, "y": 44.465391, "nume_mod": "Ceaikovski", "den_ratb": "CEAIKOVSKI", "osm_id": "Ceaikovski-3", "ratb_id": "CEAIKOVSKI-3" }, "geometry": { "type": "Point", "coordinates": [ 26.108530100283929, 44.465390999595002 ] } },
{ "type": "Feature", "properties": { "gid": 4, "objectid": 4, "f_id": "node\/14995024", "railway": "tram_stop", "name": "?oseaua ?tefan cel Mare", "ref": null, "shelter": null, "bus": null, "designatio": null, "wheelchair": null, "trolleybus": null, "x": 26.104830, "y": 44.453626, "nume_mod": "Soseaua Stefan cel Mare", "den_ratb": "SOSEAUA STEFAN CEL MARE", "osm_id": "?oseaua ?tefan cel Mare-4", "ratb_id": "SOSEAUA STEFAN CEL MARE-4" }, "geometry": { "type": "Point", "coordinates": [ 26.10482970033047, 44.453625900415034 ] } },
{ "type": "Feature", "properties": { "gid": 5, "objectid": 5, "f_id": "node\/21448894", "railway": null, "name": "Pia?a Ion Mihalache", "ref": "205, 282, 300", "shelter": null, "bus": "yes", "designatio": null, "wheelchair": null, "trolleybus": null, "x": 26.076556, "y": 44.459070, "nume_mod": "Piata Ion Mihalache", "den_ratb": "PIATA ION MIHALACHE", "osm_id": "Pia?a Ion Mihalache-5", "ratb_id": "PIATA ION MIHALACHE-5" }, "geometry": { "type": "Point", "coordinates": [ 26.076556099784227, 44.459070399679263 ] } },
{ "type": "Feature", "properties": { "gid": 6, "objectid": 6, "f_id": "node\/21458611", "railway": "tram_stop", "name": "Horei", "ref": null, "shelter": null, "bus": null, "designatio": null, "wheelchair": null, "trolleybus": null, "x": 26.124096, "y": 44.441537, "nume_mod": "Horei", "den_ratb": "HOREI", "osm_id": "Horei-6", "ratb_id": "HOREI-6" }, "geometry": { "type": "Point", "coordinates": [ 26.124095800081136, 44.441536600134043 ] } },
{ "type": "Feature", "properties": { "gid": 7, "objectid": 7, "f_id": "node\/31401811", "railway": null, "name": "Romancierilor", "ref": null, "shelter": null, "bus": "yes", "designatio": null, "wheelchair": null, "trolleybus": null, "x": 26.027532, "y": 44.422921, "nume_mod": "Romancierilor", "den_ratb": "ROMANCIERILOR", "osm_id": "Romancierilor-7", "ratb_id": "ROMANCIERILOR-7" }, "geometry": { "type": "Point", "coordinates": [ 26.027532199751249, 44.422920899979601 ] } },
{ "type": "Feature", "properties": { "gid": 8, "objectid": 8, "f_id": "node\/31401833", "railway": null, "name": "Liceul Eugen Lovinescu", "ref": "69, 90, 93, 173, 368", "shelter": null, "bus": "yes", "designatio": null, "wheelchair": null, "trolleybus": null, "x": 26.028204, "y": 44.417717, "nume_mod": "Liceul Eugen Lovinescu", "den_ratb": "LICEUL EUGEN LOVINESCU", "osm_id": "Liceul Eugen Lovinescu-8", "ratb_id": "LICEUL EUGEN LOVINESCU-8" }, "geometry": { "type": "Point", "coordinates": [ 26.028203999614959, 44.417716599741311 ] } },
{ "type": "Feature", "properties": { "gid": 9, "objectid": 9, "f_id": "node\/31403489", "railway": null, "name": "Pod Grozave?ti", "ref": null, "shelter": null, "bus": "yes", "designatio": null, "wheelchair": null, "trolleybus": null, "x": 26.061980, "y": 44.442614, "nume_mod": "Pod Grozavesti", "den_ratb": "POD GROZAVESTI", "osm_id": "Pod Grozave?ti-9", "ratb_id": "POD GROZAVESTI-9" }, "geometry": { "type": "Point", "coordinates": [ 26.061979499554297, 44.442614499659499 ] } },
{ "type": "Feature", "properties": { "gid": 10, "objectid": 10, "f_id": "node\/102936545", "railway": "tram_stop", "name": "Cimitirul Eroii Revolu?iei", "ref": null, "shelter": null, "bus": null, "designatio": null, "wheelchair": null, "trolleybus": null, "x": 26.095976, "y": 44.405966, "nume_mod": "Cimitirul Eroii Revolutiei", "den_ratb": "CIMITIRUL EROII REVOLUTIEI", "osm_id": "Cimitirul Eroii Revolu?iei-10", "ratb_id": "CIMITIRUL EROII REVOLUTIEI-10" }, "geometry": { "type": "Point", "coordinates": [ 26.095975599594283, 44.405966299804959 ] } },
{ "type": "Feature", "properties": { "gid": 11, "objectid": 11, "f_id": "node\/103594254", "railway": null, "name": "Parcul Tineretului", "ref": "312, 313, 381", "shelter": null, "bus": "yes", "designatio": null, "wheelchair": null, "trolleybus": null, "x": 26.112110, "y": 44.409704, "nume_mod": "Parcul Tineretului", "den_ratb": "PARCUL TINERETULUI", "osm_id": "Parcul Tineretului-11", "ratb_id": "PARCUL TINERETULUI-11" }, "geometry": { "type": "Point", "coordinates": [ 26.112110400274787, 44.409704500062674 ] } },
{ "type": "Feature", "properties": { "gid": 12, "objectid": 12, "f_id": "node\/103594257", "railway": null, "name": "Palatul Copiilor", "ref": "313, 381", "shelter": null, "bus": "yes", "designatio": null, "wheelchair": null, "trolleybus": null, "x": 26.112972, "y": 44.409217, "nume_mod": "Palatul Copiilor", "den_ratb": "PALATUL NATIONAL AL COPIILOR", "osm_id": "Palatul Copiilor-12", "ratb_id": "PALATUL NATIONAL AL COPIILOR-12" }, "geometry": { "type": "Point", "coordinates": [ 26.112972399556668, 44.409217199714021 ] } },
{ "type": "Feature", "properties": { "gid": 13, "objectid": 13, "f_id": "node\/103594277", "railway": null, "name": "?oseaua Mihai Bravu", "ref": "133, 223, 312, 313, 381", "shelter": null, "bus": "yes", "designatio": null, "wheelchair": null, "trolleybus": null, "x": 26.120016, "y": 44.407958, "nume_mod": "Soseaua Mihai Bravu", "den_ratb": "SOSEAUA MIHAI BRAVU", "osm_id": "?oseaua Mihai Bravu-13", "ratb_id": "SOSEAUA MIHAI BRAVU-13" }, "geometry": { "type": "Point", "coordinates": [ 26.120016000438113, 44.40795810028618 ] } },
{ "type": "Feature", "properties": { "gid": 14, "objectid": 14, "f_id": "node\/113932810", "railway": "tram_stop", "name": "Pia?a Sudului", "ref": null, "shelter": null, "bus": null, "designatio": null, "wheelchair": null, "trolleybus": null, "x": 26.121281, "y": 44.393747, "nume_mod": "Piata Sudului", "den_ratb": "PIATA SUDULUI", "osm_id": "Pia?a Sudului-14", "ratb_id": "PIATA SUDULUI-14" }, "geometry": { "type": "Point", "coordinates": [ 26.121281000317936, 44.393747300197788 ] } },
{ "type": "Feature", "properties": { "gid": 15, "objectid": 15, "f_id": "node\/116880507", "railway": "tram_stop", "name": "Bulevardul Bucure?tii Noi", "ref": null, "shelter": null, "bus": null, "designatio": null, "wheelchair": null, "trolleybus": null, "x": 26.044817, "y": 44.476690, "nume_mod": "Bulevardul Bucurestii Noi", "den_ratb": "BD. BUCURESTII NOI", "osm_id": "Bulevardul Bucure?tii Noi-15", "ratb_id": "BD. BUCURESTII NOI-15" }, "geometry": { "type": "Point", "coordinates": [ 26.044817000404294, 44.476690400141933 ] } },
{ "type": "Feature", "properties": { "gid": 16, "objectid": 16, "f_id": "node\/116914439", "railway": "tram_stop", "name": "Aviator Popi?teanu", "ref": null, "shelter": null, "bus": null, "designatio": null, "wheelchair": null, "trolleybus": null, "x": 26.059355, "y": 44.468634, "nume_mod": "Aviator Popisteanu", "den_ratb": "AVIATOR POPISTEANU", "osm_id": "Aviator Popi?teanu-16", "ratb_id": "AVIATOR POPISTEANU-16" }, "geometry": { "type": "Point", "coordinates": [ 26.059355199582853, 44.468634099683982 ] } },
{ "type": "Feature", "properties": { "gid": 17, "objectid": 17, "f_id": "node\/116914450", "railway": "tram_stop", "name": "Clabucet", "ref": null, "shelter": null, "bus": null, "designatio": null, "wheelchair": null, "trolleybus": null, "x": 26.052494, "y": 44.470929, "nume_mod": "Clabucet", "den_ratb": "CLABUCET", "osm_id": "Clabucet-17", "ratb_id": "CLABUCET-17" }, "geometry": { "type": "Point", "coordinates": [ 26.052493699724494, 44.470929499596764 ] } },
{ "type": "Feature", "properties": { "gid": 18, "objectid": 18, "f_id": "node\/123417627", "railway": "tram_stop", "name": "Suli?ei", "ref": null, "shelter": null, "bus": null, "designatio": null, "wheelchair": null, "trolleybus": null, "x": 26.083883, "y": 44.400841, "nume_mod": "Sulitei", "den_ratb": "SULITEI", "osm_id": "Suli?ei-18", "ratb_id": "SULITEI-18" }, "geometry": { "type": "Point", "coordinates": [ 26.083882800051242, 44.400841299986041 ] } },
{ "type": "Feature", "properties": { "gid": 19, "objectid": 19, "f_id": "node\/127546844", "railway": "tram_stop", "name": "Cimitirul ?erban Voda", "ref": null, "shelter": null, "bus": null, "designatio": null, "wheelchair": null, "trolleybus": null, "x": 26.098767, "y": 44.401863, "nume_mod": "Cimitirul Serban Voda", "den_ratb": "CIMITIRUL SERBAN VODA", "osm_id": "Cimitirul ?erban Voda-19", "ratb_id": "CIMITIRUL SERBAN VODA-19" }, "geometry": { "type": "Point", "coordinates": [ 26.098767400095483, 44.401863300351067 ] } },
{ "type": "Feature", "properties": { "gid": 20, "objectid": 20, "f_id": "node\/127546847", "railway": "tram_stop", "name": "Cimitirul ?erban Voda", "ref": null, "shelter": null, "bus": null, "designatio": "TRAMVAI 11", "wheelchair": null, "trolleybus": null, "x": 26.099934, "y": 44.401259, "nume_mod": "Cimitirul Serban Voda", "den_ratb": "CIMITIRUL SERBAN VODA", "osm_id": "Cimitirul ?erban Voda-20", "ratb_id": "CIMITIRUL SERBAN VODA-20" }, "geometry": { "type": "Point", "coordinates": [ 26.099934099579059, 44.401259400201184 ] } },
{ "type": "Feature", "properties": { "gid": 21, "objectid": 21, "f_id": "node\/127546853", "railway": "tram_stop", "name": "Opri? Ilie", "ref": null, "shelter": null, "bus": null, "designatio": null, "wheelchair": null, "trolleybus": null, "x": 26.105041, "y": 44.399897, "nume_mod": "Opris Ilie", "den_ratb": "OPRIS ILIE", "osm_id": "Opri? Ilie-21", "ratb_id": "OPRIS ILIE-21" }, "geometry": { "type": "Point", "coordinates": [ 26.105041200191295, 44.399897400344798 ] } },
{ "type": "Feature", "properties": { "gid": 22, "objectid": 22, "f_id": "node\/129430038", "railway": null, "name": "Complex Comercial Vitan-B-rze?ti", "ref": "124; 202", "shelter": null, "bus": "yes", "designatio": null, "wheelchair": null, "trolleybus": null, "x": 26.142675, "y": 44.399711, "nume_mod": "Complex Comercial Vitan-Barzesti", "den_ratb": "COMPLEX COMERCIAL VITAN BARZES", "osm_id": "Complex Comercial Vitan-BArze?ti-22", "ratb_id": "COMPLEX COMERCIAL VITAN BARZES-22" }, "geometry": { "type": "Point", "coordinates": [ 26.142675500374082, 44.399711300036529 ] } },
{ "type": "Feature", "properties": { "gid": 23, "objectid": 23, "f_id": "node\/129534992", "railway": "tram_stop", "name": "Pia?a Corneliu Coposu", "ref": null, "shelter": null, "bus": null, "designatio": null, "wheelchair": "no", "trolleybus": null, "x": 26.110718, "y": 44.431913, "nume_mod": "Piata Corneliu Coposu", "den_ratb": "PIATA CORNELIU COPOSU", "osm_id": "Pia?a Corneliu Coposu-23", "ratb_id": "PIATA CORNELIU COPOSU-23" }, "geometry": { "type": "Point", "coordinates": [ 26.110718200284794, 44.431913300258657 ] } },
{ "type": "Feature", "properties": { "gid": 24, "objectid": 24, "f_id": "node\/129552277", "railway": "tram_stop", "name": "Bd. Carol I", "ref": null, "shelter": null, "bus": null, "designatio": null, "wheelchair": null, "trolleybus": null, "x": 26.110073, "y": 44.437172, "nume_mod": "Bd. Carol I", "den_ratb": "BD. CAROL I", "osm_id": "Bd. Carol I-24", "ratb_id": "BD. CAROL I-24" }, "geometry": { "type": "Point", "coordinates": [ 26.110072899844511, 44.437171700113936 ] } },
{ "type": "Feature", "properties": { "gid": 25, "objectid": 25, "f_id": "node\/129557400", "railway": null, "name": "Pia?a Gemeni", "ref": null, "shelter": null, "bus": null, "designatio": null, "wheelchair": null, "trolleybus": null, "x": 26.111160, "y": 44.444705, "nume_mod": "Piata Gemeni", "den_ratb": "PIATA GEMENI", "osm_id": "Pia?a Gemeni-25", "ratb_id": "PIATA GEMENI-25" }, "geometry": { "type": "Point", "coordinates": [ 26.111159899609731, 44.44470520038476 ] } },
{ "type": "Feature", "properties": { "gid": 26, "objectid": 26, "f_id": "node\/129570838", "railway": "tram_stop", "name": "Teatrul Metropolis", "ref": null, "shelter": "no", "bus": null, "designatio": null, "wheelchair": null, "trolleybus": null, "x": 26.108088, "y": 44.447230, "nume_mod": "Teatrul Metropolis", "den_ratb": "TEATRUL METROPOLIS", "osm_id": "Teatrul Metropolis-26", "ratb_id": "TEATRUL METROPOLIS-26" }, "geometry": { "type": "Point", "coordinates": [ 26.108088300234897, 44.447229600066066 ] } },
{ "type": "Feature", "properties": { "gid": 27, "objectid": 27, "f_id": "node\/134907949", "railway": "tram_stop", "name": "Pia?a Danny HuwL", "ref": null, "shelter": null, "bus": null, "designatio": null, "wheelchair": null, "trolleybus": null, "x": 26.061998, "y": 44.428667, "nume_mod": "Piata Danny HuwL", "den_ratb": "PIATA DANNY HUWE", "osm_id": "Pia?a Danny HuwE-27", "ratb_id": "PIATA DANNY HUWE-27" }, "geometry": { "type": "Point", "coordinates": [ 26.061997899683377, 44.428667000381836 ] } },
{ "type": "Feature", "properties": { "gid": 28, "objectid": 28, "f_id": "node\/136742657", "railway": null, "name": "Romancierilor", "ref": null, "shelter": null, "bus": "yes", "designatio": null, "wheelchair": null, "trolleybus": null, "x": 26.027746, "y": 44.422738, "nume_mod": "Romancierilor", "den_ratb": "ROMANCIERILOR", "osm_id": "Romancierilor-28", "ratb_id": "ROMANCIERILOR-28" }, "geometry": { "type": "Point", "coordinates": [ 26.027745500054834, 44.422738399657476 ] } },
{ "type": "Feature", "properties": { "gid": 29, "objectid": 29, "f_id": "node\/154261519", "railway": "tram_stop", "name": "Hala Traian", "ref": null, "shelter": null, "bus": null, "designatio": null, "wheelchair": "no", "trolleybus": null, "x": 26.120931, "y": 44.433348, "nume_mod": "Hala Traian", "den_ratb": "HALA TRAIAN", "osm_id": "Hala Traian-29", "ratb_id": "HALA TRAIAN-29" }, "geometry": { "type": "Point", "coordinates": [ 26.120930600167128, 44.433348299884187 ] } },
{ "type": "Feature", "properties": { "gid": 30, "objectid": 30, "f_id": "node\/154281741", "railway": "tram_stop", "name": "Bd. Pache Protopopescu", "ref": null, "shelter": null, "bus": null, "designatio": null, "wheelchair": null, "trolleybus": null, "x": 26.120484, "y": 44.439189, "nume_mod": "Bd. Pache Protopopescu", "den_ratb": "BD. PACHE PROTOPOPESCU", "osm_id": "Bd. Pache Protopopescu-30", "ratb_id": "BD. PACHE PROTOPOPESCU-30" }, "geometry": { "type": "Point", "coordinates": [ 26.120483899712269, 44.439189199621921 ] } },
{ "type": "Feature", "properties": { "gid": 31, "objectid": 31, "f_id": "node\/166202527", "railway": null, "name": "Mun?ii Carpa?i", "ref": "139", "shelter": null, "bus": "yes", "designatio": null, "wheelchair": null, "trolleybus": null, "x": 26.066282, "y": 44.403259, "nume_mod": "Muntii Carpati", "den_ratb": "MUNTII CARPATI", "osm_id": "Mun?ii Carpa?i-31", "ratb_id": "MUNTII CARPATI-31" }, "geometry": { "type": "Point", "coordinates": [ 26.066281799565445, 44.403259200152036 ] } },
{ "type": "Feature", "properties": { "gid": 32, "objectid": 32, "f_id": "node\/166211254", "railway": null, "name": "Calea 13 Septembrie", "ref": "139, 226, 302", "shelter": null, "bus": "yes", "designatio": null, "wheelchair": null, "trolleybus": null, "x": 26.058832, "y": 44.417680, "nume_mod": "Calea 13 Septembrie", "den_ratb": "CALEA 13 SEPTEMBRIE", "osm_id": "Calea 13 Septembrie-32", "ratb_id": "CALEA 13 SEPTEMBRIE-32" }, "geometry": { "type": "Point", "coordinates": [ 26.058831699723214, 44.417680000032021 ] } },
{ "type": "Feature", "properties": { "gid": 33, "objectid": 33, "f_id": "node\/254382027", "railway": null, "name": "Calea 13 Septembrie", "ref": "136", "shelter": null, "bus": "yes", "designatio": null, "wheelchair": null, "trolleybus": null, "x": 26.089916, "y": 44.424604, "nume_mod": "Calea 13 Septembrie", "den_ratb": "CALEA 13 SEPTEMBRIE", "osm_id": "Calea 13 Septembrie-33", "ratb_id": "CALEA 13 SEPTEMBRIE-33" }, "geometry": { "type": "Point", "coordinates": [ 26.089916099848153, 44.424604000074623 ] } },
{ "type": "Feature", "properties": { "gid": 34, "objectid": 34, "f_id": "node\/254382905", "railway": null, "name": "Pia?a Arsenalului", "ref": "385", "shelter": null, "bus": "yes", "designatio": null, "wheelchair": null, "trolleybus": null, "x": 26.078093, "y": 44.425199, "nume_mod": "Piata Arsenalului", "den_ratb": "PIATA ARSENALULUI", "osm_id": "Pia?a Arsenalului-34", "ratb_id": "PIATA ARSENALULUI-34" }, "geometry": { "type": "Point", "coordinates": [ 26.078092599593845, 44.425199200182988 ] } },
{ "type": "Feature", "properties": { "gid": 35, "objectid": 35, "f_id": "node\/254438377", "railway": null, "name": "Stadionul Na?ional Lia Manoliu", "ref": "86, 90", "shelter": null, "bus": "yes", "designatio": null, "wheelchair": null, "trolleybus": "yes", "x": 26.150424, "y": 44.439505, "nume_mod": "Stadionul National Lia Manoliu", "den_ratb": "ARENA NATIONALA", "osm_id": "Stadionul Na?ional Lia Manoliu-35", "ratb_id": "ARENA NATIONALA-35" }, "geometry": { "type": "Point", "coordinates": [ 26.150423800118347, 44.439505199805183 ] } },
{ "type": "Feature", "properties": { "gid": 36, "objectid": 36, "f_id": "node\/254499519", "railway": "tram_stop", "name": "?oseaua Colentina", "ref": null, "shelter": null, "bus": null, "designatio": null, "wheelchair": null, "trolleybus": null, "x": 26.127954, "y": 44.453180, "nume_mod": "Soseaua Colentina", "den_ratb": "SOSEAUA COLENTINA", "osm_id": "?oseaua Colentina-36", "ratb_id": "SOSEAUA COLENTINA-36" }, "geometry": { "type": "Point", "coordinates": [ 26.127954100301565, 44.453179600158478 ] } },
{ "type": "Feature", "properties": { "gid": 37, "objectid": 37, "f_id": "node\/255252371", "railway": null, "name": "Bacau", "ref": "117", "shelter": null, "bus": "yes", "designatio": null, "wheelchair": null, "trolleybus": null, "x": 26.069490, "y": 44.392681, "nume_mod": "Bacau", "den_ratb": "BACAU", "osm_id": "Bacau-37", "ratb_id": "BACAU-37" }, "geometry": { "type": "Point", "coordinates": [ 26.069490399862104, 44.392681199777599 ] } },
{ "type": "Feature", "properties": { "gid": 38, "objectid": 38, "f_id": "node\/255260645", "railway": "tram_stop", "name": "Ze?arilor", "ref": null, "shelter": null, "bus": null, "designatio": null, "wheelchair": null, "trolleybus": null, "x": 26.077571, "y": 44.385748, "nume_mod": "Zetarilor", "den_ratb": "ZETARILOR", "osm_id": "Ze?arilor-38", "ratb_id": "ZETARILOR-38" }, "geometry": { "type": "Point", "coordinates": [ 26.077571300375268, 44.38574789984574 ] } },
{ "type": "Feature", "properties": { "gid": 39, "objectid": 39, "f_id": "node\/255260738", "railway": "tram_stop", "name": "Cimitirul Progresul", "ref": null, "shelter": null, "bus": null, "designatio": null, "wheelchair": null, "trolleybus": null, "x": 26.084937, "y": 44.381485, "nume_mod": "Cimitirul Progresul", "den_ratb": "CIMITIRUL PROGRESUL", "osm_id": "Cimitirul Progresul-39", "ratb_id": "CIMITIRUL PROGRESUL-39" }, "geometry": { "type": "Point", "coordinates": [ 26.084937499765829, 44.381485199682288 ] } },
{ "type": "Feature", "properties": { "gid": 40, "objectid": 40, "f_id": "node\/255262920", "railway": "tram_stop", "name": "C.F.R. Progresul", "ref": null, "shelter": null, "bus": null, "designatio": null, "wheelchair": null, "trolleybus": null, "x": 26.088735, "y": 44.369108, "nume_mod": "C.F.R. Progresul", "den_ratb": "C.F.R. PROGRESUL", "osm_id": "C.F.R. Progresul-40", "ratb_id": "C.F.R. PROGRESUL-40" }, "geometry": { "type": "Point", "coordinates": [ 26.088735200069493, 44.369108000333995 ] } },
{ "type": "Feature", "properties": { "gid": 41, "objectid": 41, "f_id": "node\/255364785", "railway": "tram_stop", "name": "Faur Poarta 4", "ref": null, "shelter": null, "bus": null, "designatio": null, "wheelchair": null, "trolleybus": null, "x": 26.179618, "y": 44.426992, "nume_mod": "Faur Poarta 4", "den_ratb": "FAUR POARTA 4", "osm_id": "Faur Poarta 4-41", "ratb_id": "FAUR POARTA 4-41" }, "geometry": { "type": "Point", "coordinates": [ 26.179618099595643, 44.426992100305256 ] } },
{ "type": "Feature", "properties": { "gid": 42, "objectid": 42, "f_id": "node\/255386895", "railway": "tram_stop", "name": "?trandul Tei", "ref": null, "shelter": null, "bus": null, "designatio": null, "wheelchair": "no", "trolleybus": null, "x": 26.124398, "y": 44.471706, "nume_mod": "Strandul Tei", "den_ratb": "STRANDUL TEI", "osm_id": "?trandul Tei-42", "ratb_id": "STRANDUL TEI-42" }, "geometry": { "type": "Point", "coordinates": [ 26.124397699794088, 44.47170629980593 ] } },
{ "type": "Feature", "properties": { "gid": 43, "objectid": 43, "f_id": "node\/255387284", "railway": "tram_stop", "name": "Gelcap", "ref": null, "shelter": "no", "bus": null, "designatio": null, "wheelchair": null, "trolleybus": null, "x": 26.124931, "y": 44.482204, "nume_mod": "Gelcap", "den_ratb": "GELCAP", "osm_id": "Gelcap-43", "ratb_id": "GELCAP-43" }, "geometry": { "type": "Point", "coordinates": [ 26.124930799916513, 44.482203899890123 ] } },
{ "type": "Feature", "properties": { "gid": 44, "objectid": 44, "f_id": "node\/255833887", "railway": null, "name": "Pasaj Grant", "ref": "65, 86, 105", "shelter": null, "bus": "yes", "designatio": null, "wheelchair": null, "trolleybus": "yes", "x": 26.061513, "y": 44.456438, "nume_mod": "Pasaj Grant", "den_ratb": "PASAJ GRANT", "osm_id": "Pasaj Grant-44", "ratb_id": "PASAJ GRANT-44" }, "geometry": { "type": "Point", "coordinates": [ 26.061512999625279, 44.456437600215111 ] } },
{ "type": "Feature", "properties": { "gid": 45, "objectid": 45, "f_id": "node\/255836994", "railway": null, "name": "Pia?a Ion Mihalache", "ref": "205, 282, 300", "shelter": null, "bus": "yes", "designatio": null, "wheelchair": null, "trolleybus": null, "x": 26.077068, "y": 44.458681, "nume_mod": "Piata Ion Mihalache", "den_ratb": "PIATA ION MIHALACHE", "osm_id": "Pia?a Ion Mihalache-45", "ratb_id": "PIATA ION MIHALACHE-45" }, "geometry": { "type": "Point", "coordinates": [ 26.077067599989789, 44.458681200077365 ] } },
{ "type": "Feature", "properties": { "gid": 46, "objectid": 46, "f_id": "node\/255854842", "railway": "tram_stop", "name": "Bd. Ion Mihalache", "ref": null, "shelter": null, "bus": null, "designatio": null, "wheelchair": null, "trolleybus": null, "x": 26.051718, "y": 44.471254, "nume_mod": "Bd. Ion Mihalache", "den_ratb": "BD. ION MIHALACHE", "osm_id": "Bd. Ion Mihalache-46", "ratb_id": "BD. ION MIHALACHE-46" }, "geometry": { "type": "Point", "coordinates": [ 26.051717600087215, 44.471254400370356 ] } },
{ "type": "Feature", "properties": { "gid": 47, "objectid": 47, "f_id": "node\/255902855", "railway": null, "name": "Calea Floreasca", "ref": "182, 282", "shelter": null, "bus": "yes", "designatio": null, "wheelchair": null, "trolleybus": null, "x": 26.102931, "y": 44.465812, "nume_mod": "Calea Floreasca", "den_ratb": "CALEA FLOREASCA", "osm_id": "Calea Floreasca-47", "ratb_id": "CALEA FLOREASCA-47" }, "geometry": { "type": "Point", "coordinates": [ 26.102931200014893, 44.465812500146797 ] } },
{ "type": "Feature", "properties": { "gid": 48, "objectid": 48, "f_id": "node\/256204835", "railway": "tram_stop", "name": "Pia?a Iancului", "ref": null, "shelter": null, "bus": null, "designatio": null, "wheelchair": null, "trolleybus": null, "x": 26.132700, "y": 44.441125, "nume_mod": "Piata Iancului", "den_ratb": "PIATA IANCULUI", "osm_id": "Pia?a Iancului-48", "ratb_id": "PIATA IANCULUI-48" }, "geometry": { "type": "Point", "coordinates": [ 26.132699499882051, 44.441125400416922 ] } },
{ "type": "Feature", "properties": { "gid": 49, "objectid": 49, "f_id": "node\/256222942", "railway": "tram_stop", "name": "Pia?a Eroii Revolu?iei", "ref": null, "shelter": null, "bus": null, "designatio": null, "wheelchair": null, "trolleybus": null, "x": 26.095191, "y": 44.405814, "nume_mod": "Piata Eroii Revolutiei", "den_ratb": "PIATA EROII REVOLUTIEI", "osm_id": "Pia?a Eroii Revolu?iei-49", "ratb_id": "PIATA EROII REVOLUTIEI-49" }, "geometry": { "type": "Point", "coordinates": [ 26.095191100289071, 44.405813499593364 ] } },
{ "type": "Feature", "properties": { "gid": 50, "objectid": 50, "f_id": "node\/256390025", "railway": null, "name": "Tricodava", "ref": null, "shelter": null, "bus": "yes", "designatio": null, "wheelchair": null, "trolleybus": null, "x": 26.033136, "y": 44.418237, "nume_mod": "Tricodava", "den_ratb": null, "osm_id": "Tricodava-50", "ratb_id": "-50" }, "geometry": { "type": "Point", "coordinates": [ 26.033135500403091, 44.418237399836187 ] } },
{ "type": "Feature", "properties": { "gid": 51, "objectid": 51, "f_id": "node\/256397694", "railway": "tram_stop", "name": "Tricodava", "ref": null, "shelter": null, "bus": null, "designatio": null, "wheelchair": null, "trolleybus": null, "x": 26.034462, "y": 44.417643, "nume_mod": "Tricodava", "den_ratb": null, "osm_id": "Tricodava-51", "ratb_id": "-51" }, "geometry": { "type": "Point", "coordinates": [ 26.034462399720042, 44.417642900299654 ] } },
{ "type": "Feature", "properties": { "gid": 52, "objectid": 52, "f_id": "node\/256399827", "railway": null, "name": "Petuniei", "ref": "137, 138", "shelter": null, "bus": "yes", "designatio": null, "wheelchair": null, "trolleybus": "yes", "x": 26.015662, "y": 44.427960, "nume_mod": "Petuniei", "den_ratb": "PETUNIEI", "osm_id": "Petuniei-52", "ratb_id": "PETUNIEI-52" }, "geometry": { "type": "Point", "coordinates": [ 26.015662299875316, 44.427960199803408 ] } },
{ "type": "Feature", "properties": { "gid": 53, "objectid": 53, "f_id": "node\/256400480", "railway": "tram_stop", "name": "Bd. Vasile Milea", "ref": null, "shelter": null, "bus": null, "designatio": null, "wheelchair": null, "trolleybus": null, "x": 26.054022, "y": 44.428601, "nume_mod": "Bd. Vasile Milea", "den_ratb": "BD. VASILE MILEA", "osm_id": "Bd. Vasile Milea-53", "ratb_id": "BD. VASILE MILEA-53" }, "geometry": { "type": "Point", "coordinates": [ 26.054022399714029, 44.42860140023447 ] } },
{ "type": "Feature", "properties": { "gid": 54, "objectid": 54, "f_id": "node\/256556175", "railway": "tram_stop", "name": "Laromet", "ref": null, "shelter": null, "bus": null, "designatio": null, "wheelchair": null, "trolleybus": null, "x": 26.030903, "y": 44.495232, "nume_mod": "Laromet", "den_ratb": "LAROMET", "osm_id": "Laromet-54", "ratb_id": "LAROMET-54" }, "geometry": { "type": "Point", "coordinates": [ 26.030903300347063, 44.495232300130624 ] } },
{ "type": "Feature", "properties": { "gid": 55, "objectid": 55, "f_id": "node\/256556185", "railway": "tram_stop", "name": "Jimbolia", "ref": null, "shelter": null, "bus": null, "designatio": null, "wheelchair": null, "trolleybus": null, "x": 26.033923, "y": 44.491771, "nume_mod": "Jimbolia", "den_ratb": "JIMBOLIA", "osm_id": "Jimbolia-55", "ratb_id": "JIMBOLIA-55" }, "geometry": { "type": "Point", "coordinates": [ 26.033922700372386, 44.49177079968274 ] } },
{ "type": "Feature", "properties": { "gid": 56, "objectid": 56, "f_id": "node\/256575400", "railway": "tram_stop", "name": "Bd. Gloriei", "ref": null, "shelter": null, "bus": null, "designatio": null, "wheelchair": null, "trolleybus": null, "x": 26.040163, "y": 44.483758, "nume_mod": "Bd. Gloriei", "den_ratb": "BD. GLORIEI", "osm_id": "Bd. Gloriei-56", "ratb_id": "BD. GLORIEI-56" }, "geometry": { "type": "Point", "coordinates": [ 26.040163499845676, 44.483758100156251 ] } },
{ "type": "Feature", "properties": { "gid": 57, "objectid": 57, "f_id": "node\/256580844", "railway": "tram_stop", "name": "Universitatea Rom5no-Americana", "ref": null, "shelter": null, "bus": null, "designatio": null, "wheelchair": null, "trolleybus": null, "x": 26.066886, "y": 44.474467, "nume_mod": "Universitatea Romano-Americana", "den_ratb": "UNIVERSITATEA ROMANO-AMERICANA", "osm_id": "Universitatea RomAno-Americana-57", "ratb_id": "UNIVERSITATEA ROMANO-AMERICANA-57" }, "geometry": { "type": "Point", "coordinates": [ 26.066885699715328, 44.474467400150445 ] } },
{ "type": "Feature", "properties": { "gid": 58, "objectid": 58, "f_id": "node\/256580851", "railway": "tram_stop", "name": "Pia?a Presei", "ref": null, "shelter": null, "bus": null, "designatio": null, "wheelchair": null, "trolleybus": null, "x": 26.072094, "y": 44.475898, "nume_mod": "Piata Presei", "den_ratb": "PIATA PRESEI", "osm_id": "Pia?a Presei-58", "ratb_id": "PIATA PRESEI-58" }, "geometry": { "type": "Point", "coordinates": [ 26.072093900313291, 44.47589769991896 ] } },
{ "type": "Feature", "properties": { "gid": 59, "objectid": 59, "f_id": "node\/256581670", "railway": "tram_stop", "name": "Bd. Expozi?iei", "ref": null, "shelter": null, "bus": null, "designatio": null, "wheelchair": null, "trolleybus": null, "x": 26.059399, "y": 44.473292, "nume_mod": "Bd. Expozitiei", "den_ratb": "BD.EXPOZITIEI", "osm_id": "Bd. Expozi?iei-59", "ratb_id": "BD.EXPOZITIEI-59" }, "geometry": { "type": "Point", "coordinates": [ 26.059399099988525, 44.473291700251821 ] } },
{ "type": "Feature", "properties": { "gid": 60, "objectid": 60, "f_id": "node\/256671289", "railway": "tram_stop", "name": "Granitul", "ref": null, "shelter": null, "bus": null, "designatio": null, "wheelchair": null, "trolleybus": null, "x": 26.182415, "y": 44.440607, "nume_mod": "Granitul", "den_ratb": "GRANITUL", "osm_id": "Granitul-60", "ratb_id": "GRANITUL-60" }, "geometry": { "type": "Point", "coordinates": [ 26.18241479960335, 44.440606899888564 ] } },
{ "type": "Feature", "properties": { "gid": 61, "objectid": 61, "f_id": "node\/256671389", "railway": "tram_stop", "name": "?oseaua Fundeni", "ref": null, "shelter": null, "bus": null, "designatio": null, "wheelchair": null, "trolleybus": null, "x": 26.166287, "y": 44.442483, "nume_mod": "Soseaua Fundeni", "den_ratb": "SOSEAUA FUNDENI", "osm_id": "?oseaua Fundeni-61", "ratb_id": "SOSEAUA FUNDENI-61" }, "geometry": { "type": "Point", "coordinates": [ 26.166286699771433, 44.442483200439426 ] } },
{ "type": "Feature", "properties": { "gid": 62, "objectid": 62, "f_id": "node\/256674864", "railway": "tram_stop", "name": "?oseaua Iancului", "ref": null, "shelter": null, "bus": null, "designatio": null, "wheelchair": null, "trolleybus": null, "x": 26.149875, "y": 44.443528, "nume_mod": "Soseaua Iancului", "den_ratb": "SOSEAUA IANCULUI", "osm_id": "?oseaua Iancului-62", "ratb_id": "SOSEAUA IANCULUI-62" }, "geometry": { "type": "Point", "coordinates": [ 26.149875200180418, 44.443527600218601 ] } },
{ "type": "Feature", "properties": { "gid": 63, "objectid": 63, "f_id": "node\/256680754", "railway": "tram_stop", "name": "Stadionul Na?ional", "ref": null, "shelter": null, "bus": null, "designatio": null, "wheelchair": "no", "trolleybus": null, "x": 26.152850, "y": 44.433372, "nume_mod": "Stadionul National", "den_ratb": "ARENA NATIONALA", "osm_id": "Stadionul Na?ional-63", "ratb_id": "ARENA NATIONALA-63" }, "geometry": { "type": "Point", "coordinates": [ 26.15285029960171, 44.433372499741097 ] } },
{ "type": "Feature", "properties": { "gid": 64, "objectid": 64, "f_id": "node\/256681569", "railway": "tram_stop", "name": "Republica S.A.", "ref": null, "shelter": null, "bus": null, "designatio": null, "wheelchair": null, "trolleybus": null, "x": 26.186207, "y": 44.433282, "nume_mod": "Republica S.A.", "den_ratb": "REPUBLICA", "osm_id": "Republica S.A.-64", "ratb_id": "REPUBLICA-64" }, "geometry": { "type": "Point", "coordinates": [ 26.186207200202205, 44.433282199713801 ] } },
{ "type": "Feature", "properties": { "gid": 65, "objectid": 65, "f_id": "node\/256700570", "railway": null, "name": "Calea Dude?ti", "ref": "135, 634", "shelter": null, "bus": "yes", "designatio": null, "wheelchair": null, "trolleybus": null, "x": 26.136339, "y": 44.419699, "nume_mod": "Calea Dudesti", "den_ratb": "CALEA DUDESTI", "osm_id": "Calea Dude?ti-65", "ratb_id": "CALEA DUDESTI-65" }, "geometry": { "type": "Point", "coordinates": [ 26.136338600246233, 44.41969879995969 ] } },
{ "type": "Feature", "properties": { "gid": 66, "objectid": 66, "f_id": "node\/256701117", "railway": "tram_stop", "name": "?oseaua Mihai Bravu", "ref": null, "shelter": "yes", "bus": null, "designatio": null, "wheelchair": null, "trolleybus": null, "x": 26.137432, "y": 44.420045, "nume_mod": "Soseaua Mihai Bravu", "den_ratb": "SOSEAUA MIHAI BRAVU", "osm_id": "?oseaua Mihai Bravu-66", "ratb_id": "SOSEAUA MIHAI BRAVU-66" }, "geometry": { "type": "Point", "coordinates": [ 26.137432200136004, 44.420044699903031 ] } },
{ "type": "Feature", "properties": { "gid": 67, "objectid": 67, "f_id": "node\/256724758", "railway": "tram_stop", "name": "Pia?a Sudului", "ref": null, "shelter": null, "bus": null, "designatio": null, "wheelchair": null, "trolleybus": null, "x": 26.120098, "y": 44.394227, "nume_mod": "Piata Sudului", "den_ratb": "PIATA SUDULUI", "osm_id": "Pia?a Sudului-67", "ratb_id": "PIATA SUDULUI-67" }, "geometry": { "type": "Point", "coordinates": [ 26.120097600423946, 44.394227299850058 ] } },
{ "type": "Feature", "properties": { "gid": 68, "objectid": 68, "f_id": "node\/256932078", "railway": null, "name": "Bd. Preciziei", "ref": "136", "shelter": "no", "bus": "yes", "designatio": null, "wheelchair": null, "trolleybus": null, "x": 26.004963, "y": 44.432288, "nume_mod": "Bd. Preciziei", "den_ratb": "BD. PRECIZIEI", "osm_id": "Bd. Preciziei-68", "ratb_id": "BD. PRECIZIEI-68" }, "geometry": { "type": "Point", "coordinates": [ 26.004962999842633, 44.432288500114225 ] } },
{ "type": "Feature", "properties": { "gid": 69, "objectid": 69, "f_id": "node\/257505920", "railway": "tram_stop", "name": "ROMPRIM", "ref": null, "shelter": null, "bus": null, "designatio": null, "wheelchair": null, "trolleybus": null, "x": 26.146297, "y": 44.383523, "nume_mod": "ROMPRIM", "den_ratb": null, "osm_id": "ROMPRIM-69", "ratb_id": "-69" }, "geometry": { "type": "Point", "coordinates": [ 26.146296699732943, 44.383523399785133 ] } },
{ "type": "Feature", "properties": { "gid": 70, "objectid": 70, "f_id": "node\/257505924", "railway": null, "name": "ROMPRIM", "ref": "124. 634", "shelter": null, "bus": "yes", "designatio": null, "wheelchair": null, "trolleybus": null, "x": 26.146843, "y": 44.383541, "nume_mod": "ROMPRIM", "den_ratb": "ROMPRIM", "osm_id": "ROMPRIM-70", "ratb_id": "ROMPRIM-70" }, "geometry": { "type": "Point", "coordinates": [ 26.146842599906108, 44.383541000416869 ] } },
{ "type": "Feature", "properties": { "gid": 71, "objectid": 71, "f_id": "node\/257505939", "railway": "tram_stop", "name": "ROMPRIM", "ref": null, "shelter": null, "bus": null, "designatio": null, "wheelchair": null, "trolleybus": null, "x": 26.145519, "y": 44.383966, "nume_mod": "ROMPRIM", "den_ratb": null, "osm_id": "ROMPRIM-71", "ratb_id": "-71" }, "geometry": { "type": "Point", "coordinates": [ 26.145519500224793, 44.383965500207694 ] } },
{ "type": "Feature", "properties": { "gid": 72, "objectid": 72, "f_id": "node\/257727455", "railway": "tram_stop", "name": "Or?ova", "ref": null, "shelter": null, "bus": null, "designatio": null, "wheelchair": null, "trolleybus": null, "x": 26.035382, "y": 44.440230, "nume_mod": "Orsova", "den_ratb": "ORSOVA", "osm_id": "Or?ova-72", "ratb_id": "ORSOVA-72" }, "geometry": { "type": "Point", "coordinates": [ 26.035381499656523, 44.440230100139047 ] } },
{ "type": "Feature", "properties": { "gid": 73, "objectid": 73, "f_id": "node\/257727660", "railway": "tram_stop", "name": "Pia?a Crpnga?i", "ref": null, "shelter": null, "bus": null, "designatio": null, "wheelchair": "limited", "trolleybus": null, "x": 26.047153, "y": 44.452234, "nume_mod": "Piata Crangasi", "den_ratb": "PIATA CRANGASI", "osm_id": "Pia?a CrAnga?i-73", "ratb_id": "PIATA CRANGASI-73" }, "geometry": { "type": "Point", "coordinates": [ 26.04715260001251, 44.452233700424983 ] } },
{ "type": "Feature", "properties": { "gid": 74, "objectid": 74, "f_id": "node\/258032411", "railway": null, "name": "Institutul Oncologic", "ref": "182, 253, 409", "shelter": null, "bus": "yes", "designatio": null, "wheelchair": null, "trolleybus": null, "x": 26.155917, "y": 44.462766, "nume_mod": "Institutul Oncologic", "den_ratb": "INSTITUTUL ONCOLOGIC", "osm_id": "Institutul Oncologic-74", "ratb_id": "INSTITUTUL ONCOLOGIC-74" }, "geometry": { "type": "Point", "coordinates": [ 26.155917399668283, 44.462765499927912 ] } },
{ "type": "Feature", "properties": { "gid": 75, "objectid": 75, "f_id": "node\/271289506", "railway": "tram_stop", "name": "Nerva Traian", "ref": null, "shelter": null, "bus": null, "designatio": null, "wheelchair": null, "trolleybus": null, "x": 26.119558, "y": 44.423921, "nume_mod": "Nerva Traian", "den_ratb": "NERVA TRAIAN", "osm_id": "Nerva Traian-75", "ratb_id": "NERVA TRAIAN-75" }, "geometry": { "type": "Point", "coordinates": [ 26.119557800352254, 44.423920900229405 ] } },
{ "type": "Feature", "properties": { "gid": 76, "objectid": 76, "f_id": "node\/286692411", "railway": "tram_stop", "name": "Ghencea", "ref": null, "shelter": null, "bus": null, "designatio": null, "wheelchair": null, "trolleybus": null, "x": 26.046350, "y": 44.415171, "nume_mod": "Ghencea", "den_ratb": "GHENCEA", "osm_id": "Ghencea-76", "ratb_id": "GHENCEA-76" }, "geometry": { "type": "Point", "coordinates": [ 26.04635030042607, 44.415171399640428 ] } },
{ "type": "Feature", "properties": { "gid": 77, "objectid": 77, "f_id": "node\/287103333", "railway": "tram_stop", "name": "Sibiu", "ref": null, "shelter": null, "bus": null, "designatio": null, "wheelchair": null, "trolleybus": null, "x": 26.048082, "y": 44.428272, "nume_mod": "Sibiu", "den_ratb": "SIBIU", "osm_id": "Sibiu-77", "ratb_id": "SIBIU-77" }, "geometry": { "type": "Point", "coordinates": [ 26.048082400082762, 44.428271900328014 ] } },
{ "type": "Feature", "properties": { "gid": 78, "objectid": 78, "f_id": "node\/287103635", "railway": "tram_stop", "name": "Bd. Vasile Milea", "ref": null, "shelter": null, "bus": null, "designatio": null, "wheelchair": null, "trolleybus": null, "x": 26.055103, "y": 44.428679, "nume_mod": "Bd. Vasile Milea", "den_ratb": "BD. VASILE MILEA", "osm_id": "Bd. Vasile Milea-78", "ratb_id": "BD. VASILE MILEA-78" }, "geometry": { "type": "Point", "coordinates": [ 26.055103099728342, 44.428678900211139 ] } },
{ "type": "Feature", "properties": { "gid": 79, "objectid": 79, "f_id": "node\/287115570", "railway": null, "name": "Valea Oltului", "ref": "105, 122, 385", "shelter": null, "bus": "yes", "designatio": null, "wheelchair": null, "trolleybus": null, "x": 26.017170, "y": 44.411975, "nume_mod": "Valea Oltului", "den_ratb": "VALEA OLTULUI", "osm_id": "Valea Oltului-79", "ratb_id": "VALEA OLTULUI-79" }, "geometry": { "type": "Point", "coordinates": [ 26.01716970032146, 44.411975399744961 ] } },
{ "type": "Feature", "properties": { "gid": 80, "objectid": 80, "f_id": "node\/295350419", "railway": "tram_stop", "name": "Maica Domnului", "ref": "36", "shelter": null, "bus": null, "designatio": null, "wheelchair": null, "trolleybus": null, "x": 26.121617, "y": 44.455197, "nume_mod": "Maica Domnului", "den_ratb": "MAICA DOMNULUI", "osm_id": "Maica Domnului-80", "ratb_id": "MAICA DOMNULUI-80" }, "geometry": { "type": "Point", "coordinates": [ 26.121617100348942, 44.455197099666464 ] } },
{ "type": "Feature", "properties": { "gid": 81, "objectid": 81, "f_id": "node\/296044762", "railway": "tram_stop", "name": "Teiul Doamnei", "ref": null, "shelter": null, "bus": null, "designatio": null, "wheelchair": null, "trolleybus": null, "x": 26.130332, "y": 44.457402, "nume_mod": "Teiul Doamnei", "den_ratb": "TEIUL DOAMNEI", "osm_id": "Teiul Doamnei-81", "ratb_id": "TEIUL DOAMNEI-81" }, "geometry": { "type": "Point", "coordinates": [ 26.130332000421561, 44.457402099727176 ] } },
{ "type": "Feature", "properties": { "gid": 82, "objectid": 82, "f_id": "node\/296061367", "railway": "tram_stop", "name": "?oseaua Pantelimon", "ref": null, "shelter": null, "bus": null, "designatio": null, "wheelchair": null, "trolleybus": null, "x": 26.157357, "y": 44.442306, "nume_mod": "Soseaua Pantelimon", "den_ratb": "SOSEAUA PANTELIMON", "osm_id": "?oseaua Pantelimon-82", "ratb_id": "SOSEAUA PANTELIMON-82" }, "geometry": { "type": "Point", "coordinates": [ 26.157356900400657, 44.442305499799033 ] } },
{ "type": "Feature", "properties": { "gid": 83, "objectid": 83, "f_id": "node\/296061371", "railway": "tram_stop", "name": "Pictor Hprlescu", "ref": null, "shelter": null, "bus": null, "designatio": null, "wheelchair": null, "trolleybus": null, "x": 26.158289, "y": 44.438761, "nume_mod": "Pictor Harlescu", "den_ratb": "PICTOR HARLESCU", "osm_id": "Pictor HArlescu-83", "ratb_id": "PICTOR HARLESCU-83" }, "geometry": { "type": "Point", "coordinates": [ 26.158288699663785, 44.438761099844953 ] } },
{ "type": "Feature", "properties": { "gid": 84, "objectid": 84, "f_id": "node\/296077860", "railway": "tram_stop", "name": "Dr. Grozovici", "ref": null, "shelter": null, "bus": null, "designatio": null, "wheelchair": null, "trolleybus": null, "x": 26.114553, "y": 44.452727, "nume_mod": "Dr. Grozovici", "den_ratb": "DR. GROZOVICI", "osm_id": "Dr. Grozovici-84", "ratb_id": "DR. GROZOVICI-84" }, "geometry": { "type": "Point", "coordinates": [ 26.114552899596674, 44.452727400349318 ] } },
{ "type": "Feature", "properties": { "gid": 85, "objectid": 85, "f_id": "node\/296079749", "railway": "tram_stop", "name": "Vatra Luminoasa", "ref": null, "shelter": null, "bus": null, "designatio": null, "wheelchair": null, "trolleybus": null, "x": 26.136461, "y": 44.437292, "nume_mod": "Vatra Luminoasa", "den_ratb": "VATRA LUMINOASA", "osm_id": "Vatra Luminoasa-85", "ratb_id": "VATRA LUMINOASA-85" }, "geometry": { "type": "Point", "coordinates": [ 26.136461300148937, 44.437291800076594 ] } },
{ "type": "Feature", "properties": { "gid": 86, "objectid": 86, "f_id": "node\/296112991", "railway": "tram_stop", "name": "Pia?a Titan", "ref": null, "shelter": "yes", "bus": null, "designatio": null, "wheelchair": null, "trolleybus": null, "x": 26.164448, "y": 44.412932, "nume_mod": "Piata Titan", "den_ratb": "PIATA TITAN", "osm_id": "Pia?a Titan-86", "ratb_id": "PIATA TITAN-86" }, "geometry": { "type": "Point", "coordinates": [ 26.164447700401126, 44.412931700137904 ] } },
{ "type": "Feature", "properties": { "gid": 87, "objectid": 87, "f_id": "node\/296115886", "railway": "tram_stop", "name": "Oficiul Po?tal 72", "ref": null, "shelter": null, "bus": null, "designatio": null, "wheelchair": null, "trolleybus": null, "x": 26.173672, "y": 44.414095, "nume_mod": "Oficiul Postal 72", "den_ratb": "OFICIUL POSTAL 72", "osm_id": "Oficiul Po?tal 72-87", "ratb_id": "OFICIUL POSTAL 72-87" }, "geometry": { "type": "Point", "coordinates": [ 26.173671900038187, 44.414094599985845 ] } },
{ "type": "Feature", "properties": { "gid": 88, "objectid": 88, "f_id": "node\/296115893", "railway": "tram_stop", "name": "Postavarului", "ref": null, "shelter": "yes", "bus": null, "designatio": null, "wheelchair": null, "trolleybus": null, "x": 26.176191, "y": 44.418159, "nume_mod": "Postavarului", "den_ratb": "POSTAVARULUI", "osm_id": "Postavarului-88", "ratb_id": "POSTAVARULUI-88" }, "geometry": { "type": "Point", "coordinates": [ 26.176191199664174, 44.418158700163929 ] } },
{ "type": "Feature", "properties": { "gid": 89, "objectid": 89, "f_id": "node\/296119455", "railway": "tram_stop", "name": "Gheorghe Petra?cu", "ref": null, "shelter": null, "bus": null, "designatio": null, "wheelchair": null, "trolleybus": null, "x": 26.138751, "y": 44.428546, "nume_mod": "Gheorghe Petrascu", "den_ratb": "GHEORGHE PETRASCU", "osm_id": "Gheorghe Petra?cu-89", "ratb_id": "GHEORGHE PETRASCU-89" }, "geometry": { "type": "Point", "coordinates": [ 26.138751299632816, 44.428546400396101 ] } },
{ "type": "Feature", "properties": { "gid": 90, "objectid": 90, "f_id": "node\/296134159", "railway": "tram_stop", "name": "Cartier Colentina", "ref": null, "shelter": "yes", "bus": null, "designatio": null, "wheelchair": null, "trolleybus": null, "x": 26.142771, "y": 44.468639, "nume_mod": "Cartier Colentina", "den_ratb": "CARTIER COLENTINA", "osm_id": "Cartier Colentina-90", "ratb_id": "CARTIER COLENTINA-90" }, "geometry": { "type": "Point", "coordinates": [ 26.142770600083168, 44.46863869971628 ] } },
{ "type": "Feature", "properties": { "gid": 91, "objectid": 91, "f_id": "node\/296135138", "railway": "tram_stop", "name": "Pasaj Colentina", "ref": null, "shelter": null, "bus": null, "designatio": null, "wheelchair": null, "trolleybus": null, "x": 26.163420, "y": 44.477710, "nume_mod": "Pasaj Colentina", "den_ratb": "PASAJ COLENTINA", "osm_id": "Pasaj Colentina-91", "ratb_id": "PASAJ COLENTINA-91" }, "geometry": { "type": "Point", "coordinates": [ 26.16342000013293, 44.477709699842819 ] } },
{ "type": "Feature", "properties": { "gid": 92, "objectid": 92, "f_id": "node\/302468096", "railway": null, "name": "Facultatea de Medicina Veterinara", "ref": "104, 123, 124", "shelter": null, "bus": "yes", "designatio": null, "wheelchair": null, "trolleybus": null, "x": 26.080939, "y": 44.433666, "nume_mod": "Facultatea de Medicina Veterinara", "den_ratb": "FACULTATEA MEDICINA VETERINARA", "osm_id": "Facultatea de Medicina Veterinara-92", "ratb_id": "FACULTATEA MEDICINA VETERINARA-92" }, "geometry": { "type": "Point", "coordinates": [ 26.08093899973511, 44.433666099610889 ] } },
{ "type": "Feature", "properties": { "gid": 93, "objectid": 93, "f_id": "node\/304240984", "railway": null, "name": "George Calinescu", "ref": "135", "shelter": "no", "bus": "yes", "designatio": null, "wheelchair": null, "trolleybus": null, "x": 26.101414, "y": 44.462244, "nume_mod": "George Calinescu", "den_ratb": "GEORGE CALINESCU", "osm_id": "George Calinescu-93", "ratb_id": "GEORGE CALINESCU-93" }, "geometry": { "type": "Point", "coordinates": [ 26.101413999656415, 44.462243500137447 ] } },
{ "type": "Feature", "properties": { "gid": 94, "objectid": 94, "f_id": "node\/304724151", "railway": "tram_stop", "name": "Maguricea", "ref": null, "shelter": "no", "bus": null, "designatio": null, "wheelchair": null, "trolleybus": null, "x": 26.096592, "y": 44.484670, "nume_mod": "Maguricea", "den_ratb": "MAGURICEA", "osm_id": "Maguricea-94", "ratb_id": "MAGURICEA-94" }, "geometry": { "type": "Point", "coordinates": [ 26.096592399619624, 44.484669699746917 ] } },
{ "type": "Feature", "properties": { "gid": 95, "objectid": 95, "f_id": "node\/304724653", "railway": "tram_stop", "name": "?oseaua Pipera", "ref": null, "shelter": "no", "bus": null, "designatio": null, "wheelchair": null, "trolleybus": null, "x": 26.102229, "y": 44.480546, "nume_mod": "Soseaua Pipera", "den_ratb": "SOSEAUA PIPERA", "osm_id": "?oseaua Pipera-95", "ratb_id": "SOSEAUA PIPERA-95" }, "geometry": { "type": "Point", "coordinates": [ 26.102229200017632, 44.480546100422259 ] } },
{ "type": "Feature", "properties": { "gid": 96, "objectid": 96, "f_id": "node\/304914940", "railway": "tram_stop", "name": "Rossini", "ref": null, "shelter": null, "bus": null, "designatio": null, "wheelchair": null, "trolleybus": null, "x": 26.107013, "y": 44.460513, "nume_mod": "Rossini", "den_ratb": "ROSSINI", "osm_id": "Rossini-96", "ratb_id": "ROSSINI-96" }, "geometry": { "type": "Point", "coordinates": [ 26.107012499727148, 44.460513100199478 ] } },
{ "type": "Feature", "properties": { "gid": 97, "objectid": 97, "f_id": "node\/304915711", "railway": "tram_stop", "name": "Pasaj Baneasa", "ref": null, "shelter": "no", "bus": null, "designatio": null, "wheelchair": null, "trolleybus": null, "x": 26.094074, "y": 44.486360, "nume_mod": "Pasaj Baneasa", "den_ratb": "PASAJ BANEASA", "osm_id": "Pasaj Baneasa-97", "ratb_id": "PASAJ BANEASA-97" }, "geometry": { "type": "Point", "coordinates": [ 26.094073699841431, 44.486360200363038 ] } },
{ "type": "Feature", "properties": { "gid": 98, "objectid": 98, "f_id": "node\/304915720", "railway": "tram_stop", "name": "Apicola", "ref": null, "shelter": null, "bus": null, "designatio": null, "wheelchair": null, "trolleybus": null, "x": 26.087918, "y": 44.492424, "nume_mod": "Apicola", "den_ratb": "APICOLA", "osm_id": "Apicola-98", "ratb_id": "APICOLA-98" }, "geometry": { "type": "Point", "coordinates": [ 26.087918100340119, 44.492423899943105 ] } },
{ "type": "Feature", "properties": { "gid": 99, "objectid": 99, "f_id": "node\/305354258", "railway": "tram_stop", "name": "Lizeanu", "ref": null, "shelter": null, "bus": null, "designatio": null, "wheelchair": null, "trolleybus": null, "x": 26.119671, "y": 44.452018, "nume_mod": "Lizeanu", "den_ratb": "LIZEANU", "osm_id": "Lizeanu-99", "ratb_id": "LIZEANU-99" }, "geometry": { "type": "Point", "coordinates": [ 26.119671200365644, 44.452018099655618 ] } },
{ "type": "Feature", "properties": { "gid": 100, "objectid": 100, "f_id": "node\/305715185", "railway": "tram_stop", "name": "Po?ta Vitan", "ref": null, "shelter": null, "bus": null, "designatio": null, "wheelchair": null, "trolleybus": null, "x": 26.122590, "y": 44.423950, "nume_mod": "Posta Vitan", "den_ratb": "POSTA VITAN", "osm_id": "Po?ta Vitan-100", "ratb_id": "POSTA VITAN-100" }, "geometry": { "type": "Point", "coordinates": [ 26.122589799879393, 44.423949799943387 ] } },
{ "type": "Feature", "properties": { "gid": 101, "objectid": 101, "f_id": "node\/308801821", "railway": "tram_stop", "name": "Autogara Filaret", "ref": null, "shelter": "yes", "bus": null, "designatio": null, "wheelchair": null, "trolleybus": null, "x": 26.091596, "y": 44.414721, "nume_mod": "Autogara Filaret", "den_ratb": "AUTOGARA FILARET", "osm_id": "Autogara Filaret-101", "ratb_id": "AUTOGARA FILARET-101" }, "geometry": { "type": "Point", "coordinates": [ 26.091596400353637, 44.414721100098745 ] } },
{ "type": "Feature", "properties": { "gid": 102, "objectid": 102, "f_id": "node\/308807147", "railway": "tram_stop", "name": "Nerva Traian", "ref": null, "shelter": null, "bus": null, "designatio": null, "wheelchair": null, "trolleybus": null, "x": 26.118013, "y": 44.423913, "nume_mod": "Nerva Traian", "den_ratb": "NERVA TRAIAN", "osm_id": "Nerva Traian-102", "ratb_id": "NERVA TRAIAN-102" }, "geometry": { "type": "Point", "coordinates": [ 26.118012599601855, 44.423912999685228 ] } },
{ "type": "Feature", "properties": { "gid": 103, "objectid": 103, "f_id": "node\/311529569", "railway": null, "name": "Aurel Vlaicu", "ref": "135", "shelter": null, "bus": "yes", "designatio": null, "wheelchair": null, "trolleybus": null, "x": 26.101628, "y": 44.479294, "nume_mod": "Aurel Vlaicu", "den_ratb": "AUREL VLAICU", "osm_id": "Aurel Vlaicu-103", "ratb_id": "AUREL VLAICU-103" }, "geometry": { "type": "Point", "coordinates": [ 26.101628399830815, 44.479293700044252 ] } },
{ "type": "Feature", "properties": { "gid": 104, "objectid": 104, "f_id": "node\/311529647", "railway": null, "name": "Fabrica de Glucoza", "ref": "135", "shelter": null, "bus": "yes", "designatio": null, "wheelchair": null, "trolleybus": null, "x": 26.104040, "y": 44.475197, "nume_mod": "Fabrica de Glucoza", "den_ratb": "SOSEAUA FABRICA DE GLUCOZA", "osm_id": "Fabrica de Glucoza-104", "ratb_id": "SOSEAUA FABRICA DE GLUCOZA-104" }, "geometry": { "type": "Point", "coordinates": [ 26.104040299720111, 44.475197399640308 ] } },
{ "type": "Feature", "properties": { "gid": 105, "objectid": 105, "f_id": "node\/387227828", "railway": null, "name": "Ghirlandei", "ref": "106", "shelter": null, "bus": "yes", "designatio": null, "wheelchair": null, "trolleybus": null, "x": 26.015357, "y": 44.439580, "nume_mod": "Ghirlandei", "den_ratb": "GHIRLANDEI", "osm_id": "Ghirlandei-105", "ratb_id": "GHIRLANDEI-105" }, "geometry": { "type": "Point", "coordinates": [ 26.015356999825713, 44.439580199666523 ] } },
{ "type": "Feature", "properties": { "gid": 106, "objectid": 106, "f_id": "node\/398822002", "railway": "tram_stop", "name": "Depoul Militari", "ref": null, "shelter": null, "bus": null, "designatio": null, "wheelchair": null, "trolleybus": null, "x": 25.978990, "y": 44.429759, "nume_mod": "Depoul Militari", "den_ratb": "DEPOUL MILITARI", "osm_id": "Depoul Militari-106", "ratb_id": "DEPOUL MILITARI-106" }, "geometry": { "type": "Point", "coordinates": [ 25.97898990016381, 44.429758700004072 ] } },
{ "type": "Feature", "properties": { "gid": 107, "objectid": 107, "f_id": "node\/398822008", "railway": "tram_stop", "name": "Inscut", "ref": null, "shelter": null, "bus": null, "designatio": null, "wheelchair": null, "trolleybus": null, "x": 25.983073, "y": 44.430098, "nume_mod": "Inscut", "den_ratb": "INSCUT", "osm_id": "Inscut-107", "ratb_id": "INSCUT-107" }, "geometry": { "type": "Point", "coordinates": [ 25.983072600120465, 44.430097899998145 ] } },
{ "type": "Feature", "properties": { "gid": 108, "objectid": 108, "f_id": "node\/398822018", "railway": "tram_stop", "name": "S.C. Vest", "ref": null, "shelter": null, "bus": null, "designatio": null, "wheelchair": null, "trolleybus": null, "x": 25.989444, "y": 44.430580, "nume_mod": "S.C. Vest", "den_ratb": "S.C. VEST", "osm_id": "S.C. Vest-108", "ratb_id": "S.C. VEST-108" }, "geometry": { "type": "Point", "coordinates": [ 25.989444099865352, 44.430579600268402 ] } },
{ "type": "Feature", "properties": { "gid": 109, "objectid": 109, "f_id": "node\/398822027", "railway": "tram_stop", "name": "Cesarom", "ref": null, "shelter": null, "bus": null, "designatio": null, "wheelchair": null, "trolleybus": null, "x": 26.000938, "y": 44.431561, "nume_mod": "Cesarom", "den_ratb": "CESAROM", "osm_id": "Cesarom-109", "ratb_id": "CESAROM-109" }, "geometry": { "type": "Point", "coordinates": [ 26.000938200037979, 44.431560599642012 ] } },
{ "type": "Feature", "properties": { "gid": 110, "objectid": 110, "f_id": "node\/412693659", "railway": "tram_stop", "name": "C.F.R. Cotroceni", "ref": null, "shelter": null, "bus": null, "designatio": null, "wheelchair": null, "trolleybus": null, "x": 26.001302, "y": 44.428051, "nume_mod": "C.F.R. Cotroceni", "den_ratb": "C.F.R. COTROCENI", "osm_id": "C.F.R. Cotroceni-110", "ratb_id": "C.F.R. COTROCENI-110" }, "geometry": { "type": "Point", "coordinates": [ 26.001302400285567, 44.428050599655478 ] } },
{ "type": "Feature", "properties": { "gid": 111, "objectid": 111, "f_id": "node\/419020624", "railway": null, "name": "Bd. Nicolae Grigorescu", "ref": null, "shelter": "no", "bus": null, "designatio": null, "wheelchair": null, "trolleybus": null, "x": 26.162674, "y": 44.424857, "nume_mod": "Bd. Nicolae Grigorescu", "den_ratb": "BD. NICOLAE GRIGORESCU", "osm_id": "Bd. Nicolae Grigorescu-111", "ratb_id": "BD. NICOLAE GRIGORESCU-111" }, "geometry": { "type": "Point", "coordinates": [ 26.162673700430958, 44.424856900225791 ] } },
{ "type": "Feature", "properties": { "gid": 112, "objectid": 112, "f_id": "node\/419022077", "railway": "tram_stop", "name": "Dristorului", "ref": null, "shelter": "yes", "bus": null, "designatio": null, "wheelchair": null, "trolleybus": null, "x": 26.140263, "y": 44.419309, "nume_mod": "Dristorului", "den_ratb": "DRISTORULUI", "osm_id": "Dristorului-112", "ratb_id": "DRISTORULUI-112" }, "geometry": { "type": "Point", "coordinates": [ 26.14026280008818, 44.419309499633755 ] } },
{ "type": "Feature", "properties": { "gid": 113, "objectid": 113, "f_id": "node\/419022078", "railway": "tram_stop", "name": "Laborator", "ref": null, "shelter": null, "bus": null, "designatio": null, "wheelchair": null, "trolleybus": null, "x": 26.134981, "y": 44.417273, "nume_mod": "Laborator", "den_ratb": "LABORATOR", "osm_id": "Laborator-113", "ratb_id": "LABORATOR-113" }, "geometry": { "type": "Point", "coordinates": [ 26.134981200422089, 44.41727269977531 ] } },
{ "type": "Feature", "properties": { "gid": 114, "objectid": 114, "f_id": "node\/419022079", "railway": "tram_stop", "name": "Pene? Curcanul", "ref": null, "shelter": null, "bus": null, "designatio": null, "wheelchair": null, "trolleybus": null, "x": 26.128076, "y": 44.412199, "nume_mod": "Penes Curcanul", "den_ratb": "PENES CURCANUL", "osm_id": "Pene? Curcanul-114", "ratb_id": "PENES CURCANUL-114" }, "geometry": { "type": "Point", "coordinates": [ 26.128075899982832, 44.412199300357486 ] } },
{ "type": "Feature", "properties": { "gid": 115, "objectid": 115, "f_id": "node\/419022080", "railway": "tram_stop", "name": "Pod Mihai Bravu", "ref": null, "shelter": null, "bus": null, "designatio": null, "wheelchair": null, "trolleybus": null, "x": 26.123005, "y": 44.409513, "nume_mod": "Pod Mihai Bravu", "den_ratb": "POD MIHAI BRAVU", "osm_id": "Pod Mihai Bravu-115", "ratb_id": "POD MIHAI BRAVU-115" }, "geometry": { "type": "Point", "coordinates": [ 26.123004899956243, 44.409513299699086 ] } },
{ "type": "Feature", "properties": { "gid": 116, "objectid": 116, "f_id": "node\/419022081", "railway": "tram_stop", "name": "Costache Stamate", "ref": null, "shelter": null, "bus": null, "designatio": null, "wheelchair": null, "trolleybus": null, "x": 26.121138, "y": 44.404407, "nume_mod": "Costache Stamate", "den_ratb": "COSTACHE STAMATE", "osm_id": "Costache Stamate-116", "ratb_id": "COSTACHE STAMATE-116" }, "geometry": { "type": "Point", "coordinates": [ 26.121137699645146, 44.404406899658738 ] } },
{ "type": "Feature", "properties": { "gid": 117, "objectid": 117, "f_id": "node\/419022082", "railway": "tram_stop", "name": "Pridvorului", "ref": null, "shelter": null, "bus": null, "designatio": null, "wheelchair": null, "trolleybus": null, "x": 26.120931, "y": 44.399495, "nume_mod": "Pridvorului", "den_ratb": "PRIDVORULUI", "osm_id": "Pridvorului-117", "ratb_id": "PRIDVORULUI-117" }, "geometry": { "type": "Point", "coordinates": [ 26.120931000365431, 44.399495200143406 ] } },
{ "type": "Feature", "properties": { "gid": 118, "objectid": 118, "f_id": "node\/419026853", "railway": "tram_stop", "name": "Bd. Constantin Br1ncoveanu", "ref": null, "shelter": null, "bus": null, "designatio": null, "wheelchair": null, "trolleybus": null, "x": 26.111033, "y": 44.397714, "nume_mod": "Bd. Constantin Brancoveanu", "den_ratb": "BD. CONSTANTIN BRANCOVEANU", "osm_id": "Bd. Constantin BrAncoveanu-118", "ratb_id": "BD. CONSTANTIN BRANCOVEANU-118" }, "geometry": { "type": "Point", "coordinates": [ 26.111033300246675, 44.397714500224083 ] } },
{ "type": "Feature", "properties": { "gid": 119, "objectid": 119, "f_id": "node\/419026854", "railway": "tram_stop", "name": "Hu?i", "ref": null, "shelter": null, "bus": null, "designatio": null, "wheelchair": null, "trolleybus": null, "x": 26.115358, "y": 44.396047, "nume_mod": "Husi", "den_ratb": "HUSI", "osm_id": "Hu?i-119", "ratb_id": "HUSI-119" }, "geometry": { "type": "Point", "coordinates": [ 26.115358499695049, 44.396046999769283 ] } },
{ "type": "Feature", "properties": { "gid": 120, "objectid": 120, "f_id": "node\/419026861", "railway": "tram_stop", "name": "Policlinica Vitan", "ref": null, "shelter": null, "bus": null, "designatio": null, "wheelchair": null, "trolleybus": null, "x": 26.127543, "y": 44.423389, "nume_mod": "Policlinica Vitan", "den_ratb": "POLICLINICA VITAN", "osm_id": "Policlinica Vitan-120", "ratb_id": "POLICLINICA VITAN-120" }, "geometry": { "type": "Point", "coordinates": [ 26.127543000409219, 44.423388599604266 ] } },
{ "type": "Feature", "properties": { "gid": 121, "objectid": 121, "f_id": "node\/419026862", "railway": "tram_stop", "name": "Depoul Dude?ti", "ref": null, "shelter": null, "bus": null, "designatio": null, "wheelchair": null, "trolleybus": null, "x": 26.131729, "y": 44.421576, "nume_mod": "Depoul Dudesti", "den_ratb": "DEPOUL DUDESTI", "osm_id": "Depoul Dude?ti-121", "ratb_id": "DEPOUL DUDESTI-121" }, "geometry": { "type": "Point", "coordinates": [ 26.13172890026857, 44.421576200381423 ] } },
{ "type": "Feature", "properties": { "gid": 122, "objectid": 122, "f_id": "node\/419265617", "railway": "tram_stop", "name": "Baba Novac", "ref": "135, 330, 634", "shelter": "yes", "bus": "yes", "designatio": null, "wheelchair": null, "trolleybus": "yes", "x": 26.137459, "y": 44.424973, "nume_mod": "Baba Novac", "den_ratb": "BABA NOVAC", "osm_id": "Baba Novac-122", "ratb_id": "BABA NOVAC-122" }, "geometry": { "type": "Point", "coordinates": [ 26.137458800283468, 44.424972699630416 ] } },
{ "type": "Feature", "properties": { "gid": 123, "objectid": 123, "f_id": "node\/419265618", "railway": null, "name": "Mieilor", "ref": null, "shelter": null, "bus": null, "designatio": null, "wheelchair": null, "trolleybus": null, "x": 26.137256, "y": 44.435265, "nume_mod": "Mieilor", "den_ratb": "MIEILOR", "osm_id": "Mieilor-123", "ratb_id": "MIEILOR-123" }, "geometry": { "type": "Point", "coordinates": [ 26.137256100288823, 44.4352648999552 ] } },
{ "type": "Feature", "properties": { "gid": 124, "objectid": 124, "f_id": "node\/419265619", "railway": "tram_stop", "name": "Bd. Ferdinand", "ref": null, "shelter": "yes", "bus": null, "designatio": null, "wheelchair": null, "trolleybus": null, "x": 26.129480, "y": 44.443519, "nume_mod": "Bd. Ferdinand", "den_ratb": "BD. FERDINAND", "osm_id": "Bd. Ferdinand-124", "ratb_id": "BD. FERDINAND-124" }, "geometry": { "type": "Point", "coordinates": [ 26.129480300175771, 44.443519099826631 ] } },
{ "type": "Feature", "properties": { "gid": 125, "objectid": 125, "f_id": "node\/419268470", "railway": "tram_stop", "name": "Vasile Lascar", "ref": null, "shelter": null, "bus": null, "designatio": null, "wheelchair": null, "trolleybus": null, "x": 26.111981, "y": 44.452866, "nume_mod": "Vasile Lascar", "den_ratb": "VASILE LASCAR", "osm_id": "Vasile Lascar-125", "ratb_id": "VASILE LASCAR-125" }, "geometry": { "type": "Point", "coordinates": [ 26.11198060022457, 44.45286579971696 ] } },
{ "type": "Feature", "properties": { "gid": 126, "objectid": 126, "f_id": "node\/419268471", "railway": "tram_stop", "name": "Stadion Dinamo", "ref": null, "shelter": null, "bus": null, "designatio": null, "wheelchair": null, "trolleybus": null, "x": 26.105975, "y": 44.452960, "nume_mod": "Stadion Dinamo", "den_ratb": "STADION DINAMO", "osm_id": "Stadion Dinamo-126", "ratb_id": "STADION DINAMO-126" }, "geometry": { "type": "Point", "coordinates": [ 26.105975399744977, 44.452959900279211 ] } },
{ "type": "Feature", "properties": { "gid": 127, "objectid": 127, "f_id": "node\/419268473", "railway": "tram_stop", "name": "Roma", "ref": null, "shelter": null, "bus": null, "designatio": null, "wheelchair": null, "trolleybus": null, "x": 26.094387, "y": 44.452754, "nume_mod": "Roma", "den_ratb": "ROMA", "osm_id": "Roma-127", "ratb_id": "ROMA-127" }, "geometry": { "type": "Point", "coordinates": [ 26.094386699886343, 44.45275379994797 ] } },
{ "type": "Feature", "properties": { "gid": 128, "objectid": 128, "f_id": "node\/419271444", "railway": "tram_stop", "name": "Patinoar", "ref": null, "shelter": null, "bus": null, "designatio": null, "wheelchair": "no", "trolleybus": null, "x": 26.148554, "y": 44.433021, "nume_mod": "Patinoar", "den_ratb": "PATINOAR", "osm_id": "Patinoar-128", "ratb_id": "PATINOAR-128" }, "geometry": { "type": "Point", "coordinates": [ 26.148554200416072, 44.433021300093003 ] } },
{ "type": "Feature", "properties": { "gid": 129, "objectid": 129, "f_id": "node\/419271516", "railway": "tram_stop", "name": "Delea Veche", "ref": null, "shelter": null, "bus": null, "designatio": null, "wheelchair": "no", "trolleybus": null, "x": 26.129456, "y": 44.431838, "nume_mod": "Delea Veche", "den_ratb": "DELEA VECHE", "osm_id": "Delea Veche-129", "ratb_id": "DELEA VECHE-129" }, "geometry": { "type": "Point", "coordinates": [ 26.129456200143579, 44.431838199673223 ] } },
{ "type": "Feature", "properties": { "gid": 130, "objectid": 130, "f_id": "node\/419271526", "railway": "tram_stop", "name": "Hala Traian", "ref": null, "shelter": null, "bus": null, "designatio": null, "wheelchair": "no", "trolleybus": null, "x": 26.121342, "y": 44.433017, "nume_mod": "Hala Traian", "den_ratb": "HALA TRAIAN", "osm_id": "Hala Traian-130", "ratb_id": "HALA TRAIAN-130" }, "geometry": { "type": "Point", "coordinates": [ 26.121341899708966, 44.433016700060705 ] } },
{ "type": "Feature", "properties": { "gid": 131, "objectid": 131, "f_id": "node\/419271531", "railway": "tram_stop", "name": "Universitatea Hyperion", "ref": null, "shelter": null, "bus": null, "designatio": null, "wheelchair": "no", "trolleybus": null, "x": 26.125521, "y": 44.432409, "nume_mod": "Universitatea Hyperion", "den_ratb": "UNIVERSITATEA HYPERION", "osm_id": "Universitatea Hyperion-131", "ratb_id": "UNIVERSITATEA HYPERION-131" }, "geometry": { "type": "Point", "coordinates": [ 26.125520499771312, 44.432409000275186 ] } },
{ "type": "Feature", "properties": { "gid": 132, "objectid": 132, "f_id": "node\/419273968", "railway": "tram_stop", "name": "Pia?a Sfpntul ?tefan", "ref": null, "shelter": null, "bus": null, "designatio": null, "wheelchair": "no", "trolleybus": null, "x": 26.116414, "y": 44.433269, "nume_mod": "Piata Sfantul Stefan", "den_ratb": "PIATA SF. STEFAN", "osm_id": "Pia?a Sf.ntul ?tefan-132", "ratb_id": "PIATA SF. STEFAN-132" }, "geometry": { "type": "Point", "coordinates": [ 26.116413899981524, 44.433269100188852 ] } },
{ "type": "Feature", "properties": { "gid": 133, "objectid": 133, "f_id": "node\/419273971", "railway": "tram_stop", "name": "Bulevardul Chi?inau", "ref": null, "shelter": null, "bus": null, "designatio": null, "wheelchair": null, "trolleybus": null, "x": 26.156420, "y": 44.442996, "nume_mod": "Bulevardul Chisinau", "den_ratb": "BD. CHISINAU", "osm_id": "Bulevardul Chi?inau-133", "ratb_id": "BD. CHISINAU-133" }, "geometry": { "type": "Point", "coordinates": [ 26.156419799634079, 44.442995500142274 ] } },
{ "type": "Feature", "properties": { "gid": 134, "objectid": 134, "f_id": "node\/419273972", "railway": "tram_stop", "name": "?oseaua Iancului", "ref": null, "shelter": null, "bus": null, "designatio": null, "wheelchair": null, "trolleybus": null, "x": 26.149107, "y": 44.443617, "nume_mod": "Soseaua Iancului", "den_ratb": "SOSEAUA IANCULUI", "osm_id": "?oseaua Iancului-134", "ratb_id": "SOSEAUA IANCULUI-134" }, "geometry": { "type": "Point", "coordinates": [ 26.149107400386242, 44.443616800375082 ] } },
{ "type": "Feature", "properties": { "gid": 135, "objectid": 135, "f_id": "node\/419273975", "railway": "tram_stop", "name": "Pictor Hprlescu", "ref": null, "shelter": null, "bus": null, "designatio": null, "wheelchair": null, "trolleybus": null, "x": 26.158539, "y": 44.438161, "nume_mod": "Pictor Harlescu", "den_ratb": "PICTOR HARLESCU", "osm_id": "Pictor HArlescu-135", "ratb_id": "PICTOR HARLESCU-135" }, "geometry": { "type": "Point", "coordinates": [ 26.158539400073323, 44.438160699856439 ] } },
{ "type": "Feature", "properties": { "gid": 136, "objectid": 136, "f_id": "node\/419535273", "railway": "tram_stop", "name": "Pia?a Sf. Gheorghe", "ref": null, "shelter": "yes", "bus": null, "designatio": null, "wheelchair": null, "trolleybus": null, "x": 26.103855, "y": 44.432597, "nume_mod": "Piata Sf. Gheorghe", "den_ratb": "PIATA SF. GHEORGHE", "osm_id": "Pia?a Sf. Gheorghe-136", "ratb_id": "PIATA SF. GHEORGHE-136" }, "geometry": { "type": "Point", "coordinates": [ 26.103854700334182, 44.432596699578085 ] } },
{ "type": "Feature", "properties": { "gid": 138, "objectid": 137, "f_id": "node\/419548396", "railway": "tram_stop", "name": "Cimitirul Ghencea", "ref": null, "shelter": null, "bus": null, "designatio": null, "wheelchair": null, "trolleybus": null, "x": 26.052871, "y": 44.416486, "nume_mod": "Cimitirul Ghencea", "den_ratb": "CIMITIRUL GHENCEA", "osm_id": "Cimitirul Ghencea-138", "ratb_id": "CIMITIRUL GHENCEA-138" }, "geometry": { "type": "Point", "coordinates": [ 26.052871399695391, 44.416486499852113 ] } },
{ "type": "Feature", "properties": { "gid": 139, "objectid": 138, "f_id": "node\/419645690", "railway": "tram_stop", "name": "Teiul Doamnei", "ref": null, "shelter": null, "bus": null, "designatio": null, "wheelchair": null, "trolleybus": null, "x": 26.129808, "y": 44.456631, "nume_mod": "Teiul Doamnei", "den_ratb": "TEIUL DOAMNEI", "osm_id": "Teiul Doamnei-139", "ratb_id": "TEIUL DOAMNEI-139" }, "geometry": { "type": "Point", "coordinates": [ 26.129808100363618, 44.456631199969934 ] } },
{ "type": "Feature", "properties": { "gid": 140, "objectid": 139, "f_id": "node\/419646036", "railway": "tram_stop", "name": "Bd. Hristo Botev", "ref": null, "shelter": null, "bus": null, "designatio": null, "wheelchair": null, "trolleybus": null, "x": 26.107538, "y": 44.433976, "nume_mod": "Bd. Hristo Botev", "den_ratb": "HRISTO BOTEV", "osm_id": "Bd. Hristo Botev-140", "ratb_id": "HRISTO BOTEV-140" }, "geometry": { "type": "Point", "coordinates": [ 26.107538100403076, 44.433976100416771 ] } },
{ "type": "Feature", "properties": { "gid": 141, "objectid": 140, "f_id": "node\/419808072", "railway": "tram_stop", "name": "Pia?a Chirigiu", "ref": null, "shelter": "no", "bus": null, "designatio": null, "wheelchair": null, "trolleybus": null, "x": 26.081467, "y": 44.417334, "nume_mod": "Piata Chirigiu", "den_ratb": "PIATA CHIRIGIU", "osm_id": "Pia?a Chirigiu-141", "ratb_id": "PIATA CHIRIGIU-141" }, "geometry": { "type": "Point", "coordinates": [ 26.081466700328008, 44.417334299738172 ] } },
{ "type": "Feature", "properties": { "gid": 142, "objectid": 141, "f_id": "node\/419809577", "railway": "tram_stop", "name": "?oseaua Progresului", "ref": null, "shelter": "no", "bus": null, "designatio": null, "wheelchair": null, "trolleybus": null, "x": 26.078043, "y": 44.415448, "nume_mod": "Soseaua Progresului", "den_ratb": "SOSEAUA PROGRESULUI", "osm_id": "?oseaua Progresului-142", "ratb_id": "SOSEAUA PROGRESULUI-142" }, "geometry": { "type": "Point", "coordinates": [ 26.078043199833871, 44.415447700151276 ] } },
{ "type": "Feature", "properties": { "gid": 143, "objectid": 142, "f_id": "node\/419809578", "railway": "tram_stop", "name": "Calea Ferentari", "ref": null, "shelter": null, "bus": null, "designatio": null, "wheelchair": null, "trolleybus": null, "x": 26.073892, "y": 44.413289, "nume_mod": "Calea Ferentari", "den_ratb": "CALEA FERENTARI", "osm_id": "Calea Ferentari-143", "ratb_id": "CALEA FERENTARI-143" }, "geometry": { "type": "Point", "coordinates": [ 26.073892500338673, 44.413288800237979 ] } },
{ "type": "Feature", "properties": { "gid": 144, "objectid": 143, "f_id": "node\/419851513", "railway": "tram_stop", "name": "Pasaj Mara?e?ti", "ref": null, "shelter": null, "bus": null, "designatio": null, "wheelchair": null, "trolleybus": null, "x": 26.108668, "y": 44.422689, "nume_mod": "Pasaj Marasesti", "den_ratb": "PASAJ MARASESTI", "osm_id": "Pasaj Mara?e?ti-144", "ratb_id": "PASAJ MARASESTI-144" }, "geometry": { "type": "Point", "coordinates": [ 26.10866830000208, 44.422688999897503 ] } },
{ "type": "Feature", "properties": { "gid": 290, "objectid": 144, "f_id": "node\/1558217882", "railway": "tram_stop", "name": "Urbis", "ref": null, "shelter": null, "bus": null, "designatio": null, "wheelchair": null, "trolleybus": null, "x": 25.994257, "y": 44.430985, "nume_mod": "Urbis", "den_ratb": "URBIS", "osm_id": "Urbis-290", "ratb_id": "URBIS-290" }, "geometry": { "type": "Point", "coordinates": [ 25.994256900035964, 44.43098469988405 ] } },
{ "type": "Feature", "properties": { "gid": 145, "objectid": 145, "f_id": "node\/432928644", "railway": null, "name": "Spitalul Fundeni", "ref": "66, 253", "shelter": null, "bus": "yes", "designatio": null, "wheelchair": null, "trolleybus": "yes", "x": 26.156198, "y": 44.466746, "nume_mod": "Spitalul Fundeni", "den_ratb": "SPITALUL FUNDENI", "osm_id": "Spitalul Fundeni-145", "ratb_id": "SPITALUL FUNDENI-145" }, "geometry": { "type": "Point", "coordinates": [ 26.15619759963954, 44.466746199677402 ] } },
{ "type": "Feature", "properties": { "gid": 146, "objectid": 146, "f_id": "node\/445630253", "railway": null, "name": "Doamna Ghica", "ref": "66, 143, 182, 254, 682", "shelter": null, "bus": "yes", "designatio": null, "wheelchair": null, "trolleybus": "yes", "x": 26.132379, "y": 44.460683, "nume_mod": "Doamna Ghica", "den_ratb": "DOAMNA GHICA", "osm_id": "Doamna Ghica-146", "ratb_id": "DOAMNA GHICA-146" }, "geometry": { "type": "Point", "coordinates": [ 26.132379399689569, 44.460683400318715 ] } },
{ "type": "Feature", "properties": { "gid": 147, "objectid": 147, "f_id": "node\/445630260", "railway": "tram_stop", "name": "Doamna Ghica", "ref": null, "shelter": null, "bus": null, "designatio": null, "wheelchair": null, "trolleybus": null, "x": 26.132889, "y": 44.461592, "nume_mod": "Doamna Ghica", "den_ratb": "DOAMNA GHICA", "osm_id": "Doamna Ghica-147", "ratb_id": "DOAMNA GHICA-147" }, "geometry": { "type": "Point", "coordinates": [ 26.132888700153444, 44.461592099595748 ] } },
{ "type": "Feature", "properties": { "gid": 148, "objectid": 148, "f_id": "node\/450592954", "railway": null, "name": "Barbu Vacarescu", "ref": "112, 135, N119", "shelter": null, "bus": "yes", "designatio": null, "wheelchair": null, "trolleybus": null, "x": 26.103414, "y": 44.480602, "nume_mod": "Barbu Vacarescu", "den_ratb": "BARBU VACARESCU", "osm_id": "Barbu Vacarescu-148", "ratb_id": "BARBU VACARESCU-148" }, "geometry": { "type": "Point", "coordinates": [ 26.103414000156022, 44.480601799933197 ] } },
{ "type": "Feature", "properties": { "gid": 149, "objectid": 149, "f_id": "node\/450594816", "railway": "tram_stop", "name": "Platforma Industriala Pipera", "ref": null, "shelter": null, "bus": null, "designatio": null, "wheelchair": null, "trolleybus": null, "x": 26.110842, "y": 44.479429, "nume_mod": "Platforma Industriala Pipera", "den_ratb": "PLATFORMA INDUSTRIALA PIPERA", "osm_id": "Platforma Industriala Pipera-149", "ratb_id": "PLATFORMA INDUSTRIALA PIPERA-149" }, "geometry": { "type": "Point", "coordinates": [ 26.110842400256615, 44.479429199997639 ] } },
{ "type": "Feature", "properties": { "gid": 150, "objectid": 150, "f_id": "node\/450688261", "railway": "tram_stop", "name": "Aeroport Baneasa", "ref": null, "shelter": null, "bus": null, "designatio": null, "wheelchair": null, "trolleybus": null, "x": 26.080260, "y": 44.494588, "nume_mod": "Aeroport Baneasa", "den_ratb": "AEROPORT BANEASA", "osm_id": "Aeroport Baneasa-150", "ratb_id": "AEROPORT BANEASA-150" }, "geometry": { "type": "Point", "coordinates": [ 26.080259900074395, 44.494588499759516 ] } },
{ "type": "Feature", "properties": { "gid": 151, "objectid": 151, "f_id": "node\/461798772", "railway": "tram_stop", "name": "Bd. Dimitrie Cantemir", "ref": null, "shelter": null, "bus": null, "designatio": null, "wheelchair": null, "trolleybus": null, "x": 26.103703, "y": 44.421100, "nume_mod": "Bd. Dimitrie Cantemir", "den_ratb": "BD. DIMITRIE CANTEMIR", "osm_id": "Bd. Dimitrie Cantemir-151", "ratb_id": "BD. DIMITRIE CANTEMIR-151" }, "geometry": { "type": "Point", "coordinates": [ 26.103702800344024, 44.421099600166485 ] } },
{ "type": "Feature", "properties": { "gid": 152, "objectid": 152, "f_id": "node\/467111850", "railway": null, "name": "Rasaritului", "ref": "61, 62, 136, 236, 336", "shelter": null, "bus": "yes", "designatio": null, "wheelchair": null, "trolleybus": "yes", "x": 26.025384, "y": 44.434094, "nume_mod": "Rasaritului", "den_ratb": "RASARITULUI", "osm_id": "Rasaritului-152", "ratb_id": "RASARITULUI-152" }, "geometry": { "type": "Point", "coordinates": [ 26.025383699598081, 44.434094300111894 ] } },
{ "type": "Feature", "properties": { "gid": 153, "objectid": 153, "f_id": "node\/485127592", "railway": null, "name": "Scut - Gherase", "ref": "143, N108", "shelter": null, "bus": "yes", "designatio": null, "wheelchair": null, "trolleybus": null, "x": 26.139053, "y": 44.457058, "nume_mod": "Scut - Gherase", "den_ratb": "SCUT - GHERASE", "osm_id": "Scut - Gherase-153", "ratb_id": "SCUT - GHERASE-153" }, "geometry": { "type": "Point", "coordinates": [ 26.139053100420313, 44.457058299700805 ] } },
{ "type": "Feature", "properties": { "gid": 154, "objectid": 154, "f_id": "node\/485131905", "railway": null, "name": "Doamna Ghica", "ref": "143", "shelter": null, "bus": "yes", "designatio": null, "wheelchair": null, "trolleybus": null, "x": 26.132950, "y": 44.461319, "nume_mod": "Doamna Ghica", "den_ratb": "DOAMNA GHICA", "osm_id": "Doamna Ghica-154", "ratb_id": "DOAMNA GHICA-154" }, "geometry": { "type": "Point", "coordinates": [ 26.13295039994108, 44.461319399970364 ] } },
{ "type": "Feature", "properties": { "gid": 155, "objectid": 155, "f_id": "node\/485132751", "railway": null, "name": "Constan?a", "ref": "143, N108", "shelter": null, "bus": "yes", "designatio": null, "wheelchair": null, "trolleybus": null, "x": 26.136688, "y": 44.459049, "nume_mod": "Constanta", "den_ratb": "CONSTANTA", "osm_id": "Constan?a-155", "ratb_id": "CONSTANTA-155" }, "geometry": { "type": "Point", "coordinates": [ 26.136688000351, 44.45904929978542 ] } },
{ "type": "Feature", "properties": { "gid": 156, "objectid": 156, "f_id": "node\/485137417", "railway": null, "name": "Constan?a", "ref": "143, N108", "shelter": null, "bus": "yes", "designatio": null, "wheelchair": null, "trolleybus": null, "x": 26.136506, "y": 44.459410, "nume_mod": "Constanta", "den_ratb": "CONSTANTA", "osm_id": "Constan?a-156", "ratb_id": "CONSTANTA-156" }, "geometry": { "type": "Point", "coordinates": [ 26.136506099876669, 44.459409999871639 ] } },
{ "type": "Feature", "properties": { "gid": 157, "objectid": 157, "f_id": "node\/485138485", "railway": null, "name": "Scut - Gherase", "ref": "143, N108", "shelter": null, "bus": "yes", "designatio": null, "wheelchair": null, "trolleybus": null, "x": 26.138339, "y": 44.457849, "nume_mod": "Scut - Gherase", "den_ratb": "SCUT - GHERASE", "osm_id": "Scut - Gherase-157", "ratb_id": "SCUT - GHERASE-157" }, "geometry": { "type": "Point", "coordinates": [ 26.138338800395388, 44.457848599633223 ] } },
{ "type": "Feature", "properties": { "gid": 158, "objectid": 158, "f_id": "node\/490612312", "railway": "tram_stop", "name": "?ura Mare", "ref": null, "shelter": null, "bus": null, "designatio": null, "wheelchair": null, "trolleybus": null, "x": 26.097234, "y": 44.400634, "nume_mod": "Sura Mare", "den_ratb": "SURA MARE", "osm_id": "?ura Mare-158", "ratb_id": "SURA MARE-158" }, "geometry": { "type": "Point", "coordinates": [ 26.097234000248989, 44.400634400157514 ] } },
{ "type": "Feature", "properties": { "gid": 159, "objectid": 159, "f_id": "node\/490612319", "railway": "tram_stop", "name": "Muzeul Bacovia", "ref": null, "shelter": null, "bus": null, "designatio": null, "wheelchair": null, "trolleybus": null, "x": 26.095909, "y": 44.397412, "nume_mod": "Muzeul Bacovia", "den_ratb": "MUZEUL BACOVIA", "osm_id": "Muzeul Bacovia-159", "ratb_id": "MUZEUL BACOVIA-159" }, "geometry": { "type": "Point", "coordinates": [ 26.095908899576102, 44.397412300137603 ] } },
{ "type": "Feature", "properties": { "gid": 160, "objectid": 160, "f_id": "node\/490612328", "railway": "tram_stop", "name": "Pia?a Progresul", "ref": null, "shelter": null, "bus": null, "designatio": null, "wheelchair": null, "trolleybus": null, "x": 26.093861, "y": 44.392972, "nume_mod": "Piata Progresul", "den_ratb": "PIATA PROGRESUL", "osm_id": "Pia?a Progresul-160", "ratb_id": "PIATA PROGRESUL-160" }, "geometry": { "type": "Point", "coordinates": [ 26.093861299759226, 44.392972199707287 ] } },
{ "type": "Feature", "properties": { "gid": 161, "objectid": 161, "f_id": "node\/490612333", "railway": "tram_stop", "name": "?os. Giurgiului", "ref": null, "shelter": null, "bus": null, "designatio": "statie de tramvai", "wheelchair": null, "trolleybus": null, "x": 26.092394, "y": 44.389811, "nume_mod": "Sos. Giurgiului", "den_ratb": "SOSEAUA GIURGIULUI", "osm_id": "?os. Giurgiului-161", "ratb_id": "SOSEAUA GIURGIULUI-161" }, "geometry": { "type": "Point", "coordinates": [ 26.092393900258344, 44.389811099802444 ] } },
{ "type": "Feature", "properties": { "gid": 162, "objectid": 162, "f_id": "node\/490612341", "railway": "tram_stop", "name": "Drumul Gazarului", "ref": null, "shelter": null, "bus": null, "designatio": null, "wheelchair": null, "trolleybus": null, "x": 26.092179, "y": 44.386025, "nume_mod": "Drumul Gazarului", "den_ratb": "DRUMUL GAZARULUI", "osm_id": "Drumul Gazarului-162", "ratb_id": "DRUMUL GAZARULUI-162" }, "geometry": { "type": "Point", "coordinates": [ 26.09217940025917, 44.386025300227459 ] } },
{ "type": "Feature", "properties": { "gid": 163, "objectid": 163, "f_id": "node\/491073949", "railway": "tram_stop", "name": "Pasaj Victoria", "ref": "1, 46", "shelter": null, "bus": null, "designatio": null, "wheelchair": null, "trolleybus": null, "x": 26.091589, "y": 44.452531, "nume_mod": "Pasaj Victoria", "den_ratb": "PASAJ VICTORIA", "osm_id": "Pasaj Victoria-163", "ratb_id": "PASAJ VICTORIA-163" }, "geometry": { "type": "Point", "coordinates": [ 26.091588999832538, 44.452531099930354 ] } },
{ "type": "Feature", "properties": { "gid": 164, "objectid": 164, "f_id": "node\/493727254", "railway": null, "name": "Pia?a Iancului", "ref": "135, 311, 330, 634", "shelter": null, "bus": "yes", "designatio": null, "wheelchair": null, "trolleybus": null, "x": 26.134316, "y": 44.440260, "nume_mod": "Piata Iancului", "den_ratb": "PIATA IANCULUI", "osm_id": "Pia?a Iancului-164", "ratb_id": "PIATA IANCULUI-164" }, "geometry": { "type": "Point", "coordinates": [ 26.13431599978361, 44.440260300272712 ] } },
{ "type": "Feature", "properties": { "gid": 165, "objectid": 165, "f_id": "node\/493727272", "railway": null, "name": "Gheorghe Petra?cu", "ref": "135, 311, 330, 634", "shelter": null, "bus": "yes", "designatio": null, "wheelchair": null, "trolleybus": null, "x": 26.138723, "y": 44.428224, "nume_mod": "Gheorghe Petrascu", "den_ratb": "GHEORGHE PETRASCU", "osm_id": "Gheorghe Petra?cu-165", "ratb_id": "GHEORGHE PETRASCU-165" }, "geometry": { "type": "Point", "coordinates": [ 26.138722899941911, 44.428223800088347 ] } },
{ "type": "Feature", "properties": { "gid": 166, "objectid": 166, "f_id": "node\/493932539", "railway": null, "name": "Baba Novac", "ref": "135, 330, 634", "shelter": null, "bus": "yes", "designatio": null, "wheelchair": null, "trolleybus": null, "x": 26.137436, "y": 44.425536, "nume_mod": "Baba Novac", "den_ratb": "BABA NOVAC", "osm_id": "Baba Novac-166", "ratb_id": "BABA NOVAC-166" }, "geometry": { "type": "Point", "coordinates": [ 26.137435700297374, 44.425536200435374 ] } },
{ "type": "Feature", "properties": { "gid": 167, "objectid": 167, "f_id": "node\/493932541", "railway": null, "name": "Baba Novac", "ref": "135, 330, 634", "shelter": null, "bus": "yes", "designatio": null, "wheelchair": null, "trolleybus": null, "x": 26.137641, "y": 44.425178, "nume_mod": "Baba Novac", "den_ratb": "BABA NOVAC", "osm_id": "Baba Novac-167", "ratb_id": "BABA NOVAC-167" }, "geometry": { "type": "Point", "coordinates": [ 26.137641100056783, 44.425178100289145 ] } },
{ "type": "Feature", "properties": { "gid": 168, "objectid": 168, "f_id": "node\/559549792", "railway": null, "name": "Apusului", "ref": "61, 62, 136, 137, 138, 236, 336", "shelter": null, "bus": "yes", "designatio": null, "wheelchair": null, "trolleybus": null, "x": 26.012196, "y": 44.433991, "nume_mod": "Apusului", "den_ratb": "APUSULUI", "osm_id": "Apusului-168", "ratb_id": "APUSULUI-168" }, "geometry": { "type": "Point", "coordinates": [ 26.012195700271377, 44.433991100209141 ] } },
{ "type": "Feature", "properties": { "gid": 169, "objectid": 169, "f_id": "node\/559550151", "railway": null, "name": "Apusului", "ref": "61, 62, 136, 137, 138, 236, 336", "shelter": null, "bus": "yes", "designatio": null, "wheelchair": null, "trolleybus": null, "x": 26.012637, "y": 44.433845, "nume_mod": "Apusului", "den_ratb": "APUSULUI", "osm_id": "Apusului-169", "ratb_id": "APUSULUI-169" }, "geometry": { "type": "Point", "coordinates": [ 26.012636699923803, 44.433845300320399 ] } },
{ "type": "Feature", "properties": { "gid": 170, "objectid": 170, "f_id": "node\/559959472", "railway": "tram_stop", "name": "Pia?a Iancului", "ref": null, "shelter": null, "bus": null, "designatio": null, "wheelchair": null, "trolleybus": null, "x": 26.134571, "y": 44.441355, "nume_mod": "Piata Iancului", "den_ratb": "PIATA IANCULUI", "osm_id": "Pia?a Iancului-170", "ratb_id": "PIATA IANCULUI-170" }, "geometry": { "type": "Point", "coordinates": [ 26.134571400050106, 44.441354599834995 ] } },
{ "type": "Feature", "properties": { "gid": 171, "objectid": 171, "f_id": "node\/580742264", "railway": "tram_stop", "name": "Bd. Constantin Br0ncoveanu", "ref": null, "shelter": null, "bus": null, "designatio": "TRAMVAI 11", "wheelchair": null, "trolleybus": null, "x": 26.109317, "y": 44.398363, "nume_mod": "Bd. Constantin Brancoveanu", "den_ratb": "BD. CONSTANTIN BRANCOVEANU", "osm_id": "Bd. Constantin BrAncoveanu-171", "ratb_id": "BD. CONSTANTIN BRANCOVEANU-171" }, "geometry": { "type": "Point", "coordinates": [ 26.109317200428507, 44.398363100276924 ] } },
{ "type": "Feature", "properties": { "gid": 172, "objectid": 172, "f_id": "node\/582474608", "railway": null, "name": "Ancu?a Baneasa", "ref": "135", "shelter": null, "bus": "yes", "designatio": null, "wheelchair": null, "trolleybus": null, "x": 26.104444, "y": 44.470380, "nume_mod": "Ancuta Baneasa", "den_ratb": "ANCUTA BANEASA", "osm_id": "Ancu?a Baneasa-172", "ratb_id": "ANCUTA BANEASA-172" }, "geometry": { "type": "Point", "coordinates": [ 26.104443999990679, 44.470379500313754 ] } },
{ "type": "Feature", "properties": { "gid": 173, "objectid": 173, "f_id": "node\/582478276", "railway": null, "name": "Pia?a Floreasca", "ref": "135", "shelter": "no", "bus": "yes", "designatio": null, "wheelchair": null, "trolleybus": null, "x": 26.101024, "y": 44.460267, "nume_mod": "Piata Floreasca", "den_ratb": "PIATA FLOREASCA", "osm_id": "Pia?a Floreasca-173", "ratb_id": "PIATA FLOREASCA-173" }, "geometry": { "type": "Point", "coordinates": [ 26.101024399856215, 44.460266499799161 ] } },
{ "type": "Feature", "properties": { "gid": 174, "objectid": 174, "f_id": "node\/582478465", "railway": null, "name": "?oseaua ?tefan cel Mare", "ref": "135", "shelter": "yes", "bus": "yes", "designatio": null, "wheelchair": null, "trolleybus": null, "x": 26.100754, "y": 44.454716, "nume_mod": "Soseaua Stefan cel Mare", "den_ratb": "SOSEAUA STEFAN CEL MARE", "osm_id": "?oseaua ?tefan cel Mare-174", "ratb_id": "SOSEAUA STEFAN CEL MARE-174" }, "geometry": { "type": "Point", "coordinates": [ 26.100754399995594, 44.454716099968095 ] } },
{ "type": "Feature", "properties": { "gid": 175, "objectid": 175, "f_id": "node\/582481089", "railway": null, "name": "Pia?a Spaniei", "ref": "79, 86, 133, 135", "shelter": "no", "bus": "yes", "designatio": null, "wheelchair": null, "trolleybus": "yes", "x": 26.108740, "y": 44.445995, "nume_mod": "Piata Spaniei", "den_ratb": "PIATA SPANIEI", "osm_id": "Pia?a Spaniei-175", "ratb_id": "PIATA SPANIEI-175" }, "geometry": { "type": "Point", "coordinates": [ 26.108740299725127, 44.445995400167646 ] } },
{ "type": "Feature", "properties": { "gid": 176, "objectid": 176, "f_id": "node\/582481154", "railway": null, "name": "Pia?a Gemeni", "ref": "79, 86, 133, 135", "shelter": "no", "bus": "yes", "designatio": null, "wheelchair": null, "trolleybus": "yes", "x": 26.112288, "y": 44.445335, "nume_mod": "Piata Gemeni", "den_ratb": "PIATA GEMENI", "osm_id": "Pia?a Gemeni-176", "ratb_id": "PIATA GEMENI-176" }, "geometry": { "type": "Point", "coordinates": [ 26.112288199840577, 44.445334599911916 ] } },
{ "type": "Feature", "properties": { "gid": 177, "objectid": 177, "f_id": "node\/582522185", "railway": "tram_stop", "name": "Mihai Eminescu", "ref": null, "shelter": null, "bus": null, "designatio": null, "wheelchair": null, "trolleybus": null, "x": 26.118990, "y": 44.443147, "nume_mod": "Mihai Eminescu", "den_ratb": "MIHAI EMINESCU", "osm_id": "Mihai Eminescu-177", "ratb_id": "MIHAI EMINESCU-177" }, "geometry": { "type": "Point", "coordinates": [ 26.118989900063866, 44.443147400132489 ] } },
{ "type": "Feature", "properties": { "gid": 178, "objectid": 178, "f_id": "node\/582524617", "railway": "tram_stop", "name": "Bucur Obor", "ref": null, "shelter": null, "bus": null, "designatio": null, "wheelchair": null, "trolleybus": null, "x": 26.125252, "y": 44.450314, "nume_mod": "Bucur Obor", "den_ratb": "BUCUR OBOR", "osm_id": "Bucur Obor-178", "ratb_id": "BUCUR OBOR-178" }, "geometry": { "type": "Point", "coordinates": [ 26.125251699606281, 44.450314100215621 ] } },
{ "type": "Feature", "properties": { "gid": 179, "objectid": 179, "f_id": "node\/590206839", "railway": null, "name": "Calea Mo?ilor", "ref": "79, 86, 133, 135", "shelter": "yes", "bus": "yes", "designatio": null, "wheelchair": null, "trolleybus": "yes", "x": 26.117782, "y": 44.444040, "nume_mod": "Calea Mosilor", "den_ratb": "CALEA MOSILOR", "osm_id": "Calea Mo?ilor-179", "ratb_id": "CALEA MOSILOR-179" }, "geometry": { "type": "Point", "coordinates": [ 26.117782099764156, 44.444039499723203 ] } },
{ "type": "Feature", "properties": { "gid": 291, "objectid": 180, "f_id": "node\/1558217883", "railway": "tram_stop", "name": "Vadul Nou", "ref": null, "shelter": null, "bus": null, "designatio": null, "wheelchair": null, "trolleybus": null, "x": 26.082645, "y": 44.392878, "nume_mod": "Vadul Nou", "den_ratb": "VADUL NOU", "osm_id": "Vadul Nou-291", "ratb_id": "VADUL NOU-291" }, "geometry": { "type": "Point", "coordinates": [ 26.082645299640944, 44.392878400417885 ] } },
{ "type": "Feature", "properties": { "gid": 180, "objectid": 181, "f_id": "node\/590208133", "railway": null, "name": "Pia?a Gemeni", "ref": "79, 86, 133, 135", "shelter": "yes", "bus": "yes", "designatio": null, "wheelchair": null, "trolleybus": "yes", "x": 26.113440, "y": 44.445142, "nume_mod": "Piata Gemeni", "den_ratb": "PIATA GEMENI", "osm_id": "Pia?a Gemeni-180", "ratb_id": "PIATA GEMENI-180" }, "geometry": { "type": "Point", "coordinates": [ 26.113439699882292, 44.445142100027965 ] } },
{ "type": "Feature", "properties": { "gid": 181, "objectid": 182, "f_id": "node\/599983930", "railway": "tram_stop", "name": "Vasile Lascar", "ref": null, "shelter": null, "bus": null, "designatio": null, "wheelchair": null, "trolleybus": null, "x": 26.111008, "y": 44.452882, "nume_mod": "Vasile Lascar", "den_ratb": "VASILE LASCAR", "osm_id": "Vasile Lascar-181", "ratb_id": "VASILE LASCAR-181" }, "geometry": { "type": "Point", "coordinates": [ 26.111007799970025, 44.452881599905936 ] } },
{ "type": "Feature", "properties": { "gid": 182, "objectid": 183, "f_id": "node\/599983932", "railway": "tram_stop", "name": "Bulevardul Lacul Tei", "ref": null, "shelter": null, "bus": null, "designatio": null, "wheelchair": null, "trolleybus": null, "x": 26.106011, "y": 44.457278, "nume_mod": "Bulevardul Lacul Tei", "den_ratb": "BD. LACUL TEI", "osm_id": "Bulevardul Lacul Tei-182", "ratb_id": "BD. LACUL TEI-182" }, "geometry": { "type": "Point", "coordinates": [ 26.106011199956981, 44.457277899755297 ] } },
{ "type": "Feature", "properties": { "gid": 183, "objectid": 184, "f_id": "node\/599983933", "railway": "tram_stop", "name": "Bulevardul Lacul Tei", "ref": null, "shelter": null, "bus": null, "designatio": null, "wheelchair": null, "trolleybus": null, "x": 26.105834, "y": 44.456691, "nume_mod": "Bulevardul Lacul Tei", "den_ratb": "BD. LACUL TEI", "osm_id": "Bulevardul Lacul Tei-183", "ratb_id": "BD. LACUL TEI-183" }, "geometry": { "type": "Point", "coordinates": [ 26.105834199888477, 44.456691200038904 ] } },
{ "type": "Feature", "properties": { "gid": 184, "objectid": 185, "f_id": "node\/599983936", "railway": "tram_stop", "name": "Rossini", "ref": null, "shelter": null, "bus": null, "designatio": null, "wheelchair": null, "trolleybus": null, "x": 26.106907, "y": 44.460149, "nume_mod": "Rossini", "den_ratb": "ROSSINI", "osm_id": "Rossini-184", "ratb_id": "ROSSINI-184" }, "geometry": { "type": "Point", "coordinates": [ 26.106906500234857, 44.46014939997491 ] } },
{ "type": "Feature", "properties": { "gid": 185, "objectid": 186, "f_id": "node\/599983938", "railway": "tram_stop", "name": "Dr. Grozovici", "ref": null, "shelter": null, "bus": null, "designatio": null, "wheelchair": null, "trolleybus": null, "x": 26.115710, "y": 44.452620, "nume_mod": "Dr. Grozovici", "den_ratb": "DR. GROZOVICI", "osm_id": "Dr. Grozovici-185", "ratb_id": "DR. GROZOVICI-185" }, "geometry": { "type": "Point", "coordinates": [ 26.115709700242519, 44.452619800063758 ] } },
{ "type": "Feature", "properties": { "gid": 186, "objectid": 187, "f_id": "node\/599983943", "railway": "tram_stop", "name": "Lizeanu", "ref": null, "shelter": null, "bus": null, "designatio": null, "wheelchair": null, "trolleybus": null, "x": 26.120265, "y": 44.451858, "nume_mod": "Lizeanu", "den_ratb": "LIZEANU", "osm_id": "Lizeanu-186", "ratb_id": "LIZEANU-186" }, "geometry": { "type": "Point", "coordinates": [ 26.120264799680797, 44.451858100371112 ] } },
{ "type": "Feature", "properties": { "gid": 187, "objectid": 188, "f_id": "node\/599983945", "railway": "tram_stop", "name": "Ceaikovski", "ref": null, "shelter": null, "bus": null, "designatio": null, "wheelchair": null, "trolleybus": null, "x": 26.108226, "y": 44.464417, "nume_mod": "Ceaikovski", "den_ratb": "CEAIKOVSKI", "osm_id": "Ceaikovski-187", "ratb_id": "CEAIKOVSKI-187" }, "geometry": { "type": "Point", "coordinates": [ 26.108226300303556, 44.464416600345885 ] } },
{ "type": "Feature", "properties": { "gid": 188, "objectid": 189, "f_id": "node\/599983946", "railway": "tram_stop", "name": "Giuseppe Verdi", "ref": null, "shelter": null, "bus": null, "designatio": null, "wheelchair": null, "trolleybus": null, "x": 26.109681, "y": 44.469101, "nume_mod": "Giuseppe Verdi", "den_ratb": "GIUSEPPE VERDI", "osm_id": "Giuseppe Verdi-188", "ratb_id": "GIUSEPPE VERDI-188" }, "geometry": { "type": "Point", "coordinates": [ 26.109680899753755, 44.469101099636077 ] } },
{ "type": "Feature", "properties": { "gid": 189, "objectid": 190, "f_id": "node\/599983948", "railway": "tram_stop", "name": "?oseaua Pipera", "ref": null, "shelter": "no", "bus": null, "designatio": null, "wheelchair": null, "trolleybus": null, "x": 26.103130, "y": 44.479895, "nume_mod": "Soseaua Pipera", "den_ratb": "SOSEAUA PIPERA", "osm_id": "?oseaua Pipera-189", "ratb_id": "SOSEAUA PIPERA-189" }, "geometry": { "type": "Point", "coordinates": [ 26.103129999649809, 44.479894500231069 ] } },
{ "type": "Feature", "properties": { "gid": 190, "objectid": 191, "f_id": "node\/599983949", "railway": "tram_stop", "name": "Pasaj Baneasa", "ref": null, "shelter": "no", "bus": null, "designatio": null, "wheelchair": null, "trolleybus": null, "x": 26.094673, "y": 44.485973, "nume_mod": "Pasaj Baneasa", "den_ratb": "PASAJ BANEASA", "osm_id": "Pasaj Baneasa-190", "ratb_id": "PASAJ BANEASA-190" }, "geometry": { "type": "Point", "coordinates": [ 26.094673499982093, 44.485973199603507 ] } },
{ "type": "Feature", "properties": { "gid": 191, "objectid": 192, "f_id": "node\/599983951", "railway": "tram_stop", "name": "Maguricea", "ref": null, "shelter": null, "bus": null, "designatio": null, "wheelchair": null, "trolleybus": null, "x": 26.097479, "y": 44.484043, "nume_mod": "Maguricea", "den_ratb": "MAGURICEA", "osm_id": "Maguricea-191", "ratb_id": "MAGURICEA-191" }, "geometry": { "type": "Point", "coordinates": [ 26.09747940005434, 44.48404290015975 ] } },
{ "type": "Feature", "properties": { "gid": 192, "objectid": 193, "f_id": "node\/599983952", "railway": "tram_stop", "name": "Muzeul Avia?iei", "ref": "5", "shelter": "no", "bus": null, "designatio": null, "wheelchair": null, "trolleybus": null, "x": 26.107169, "y": 44.475408, "nume_mod": "Muzeul Aviatiei", "den_ratb": "MUZEUL AVIATIEI", "osm_id": "Muzeul Avia?iei-192", "ratb_id": "MUZEUL AVIATIEI-192" }, "geometry": { "type": "Point", "coordinates": [ 26.107168599551301, 44.475408199828621 ] } },
{ "type": "Feature", "properties": { "gid": 193, "objectid": 194, "f_id": "node\/603120006", "railway": "tram_stop", "name": "George Vplsan", "ref": null, "shelter": null, "bus": null, "designatio": null, "wheelchair": null, "trolleybus": null, "x": 26.046824, "y": 44.460646, "nume_mod": "George Valsan", "den_ratb": "GEORGE VALSAN", "osm_id": "George VAlsan-193", "ratb_id": "GEORGE VALSAN-193" }, "geometry": { "type": "Point", "coordinates": [ 26.046824399626416, 44.460646000212819 ] } },
{ "type": "Feature", "properties": { "gid": 194, "objectid": 195, "f_id": "node\/619899931", "railway": null, "name": "UPB", "ref": "61, 62, 136, 236, 336", "shelter": null, "bus": "yes", "designatio": null, "wheelchair": null, "trolleybus": "yes", "x": 26.048261, "y": 44.434482, "nume_mod": "UPB", "den_ratb": "U.P.B.", "osm_id": "UPB-194", "ratb_id": "U.P.B.-194" }, "geometry": { "type": "Point", "coordinates": [ 26.048261300418744, 44.434482399842921 ] } },
{ "type": "Feature", "properties": { "gid": 195, "objectid": 196, "f_id": "node\/619899955", "railway": null, "name": "Lujerului", "ref": "61, 62, 136, 236, 336", "shelter": "yes", "bus": "yes", "designatio": null, "wheelchair": "yes", "trolleybus": "yes", "x": 26.036135, "y": 44.434160, "nume_mod": "Lujerului", "den_ratb": "LUJERULUI", "osm_id": "Lujerului-195", "ratb_id": "LUJERULUI-195" }, "geometry": { "type": "Point", "coordinates": [ 26.036134699856575, 44.434160500107055 ] } },
{ "type": "Feature", "properties": { "gid": 196, "objectid": 197, "f_id": "node\/620099542", "railway": null, "name": "Gradina Botanica", "ref": null, "shelter": null, "bus": "yes", "designatio": null, "wheelchair": null, "trolleybus": null, "x": 26.065717, "y": 44.436501, "nume_mod": "Gradina Botanica", "den_ratb": "GRADINA BOTANICA", "osm_id": "Gradina Botanica-196", "ratb_id": "GRADINA BOTANICA-196" }, "geometry": { "type": "Point", "coordinates": [ 26.065716500116423, 44.436500599922795 ] } },
{ "type": "Feature", "properties": { "gid": 197, "objectid": 198, "f_id": "node\/622350400", "railway": "tram_stop", "name": "Pia?a Hurmuzachi", "ref": null, "shelter": null, "bus": null, "designatio": null, "wheelchair": null, "trolleybus": null, "x": 26.139248, "y": 44.431307, "nume_mod": "Piata Hurmuzachi", "den_ratb": "PIATA HURMUZACHI", "osm_id": "Pia?a Hurmuzachi-197", "ratb_id": "PIATA HURMUZACHI-197" }, "geometry": { "type": "Point", "coordinates": [ 26.139247800046007, 44.43130670034401 ] } },
{ "type": "Feature", "properties": { "gid": 198, "objectid": 199, "f_id": "node\/630366696", "railway": null, "name": "Pia?a Charles De Gaulle", "ref": "131, 282, 301, 330, 331, 335", "shelter": null, "bus": "yes", "designatio": null, "wheelchair": null, "trolleybus": null, "x": 26.087892, "y": 44.465398, "nume_mod": "Piata Charles De Gaulle", "den_ratb": "PIATA CHARLES DE GAULLE", "osm_id": "Pia?a Charles De Gaulle-198", "ratb_id": "PIATA CHARLES DE GAULLE-198" }, "geometry": { "type": "Point", "coordinates": [ 26.087891600017372, 44.465397499894777 ] } },
{ "type": "Feature", "properties": { "gid": 199, "objectid": 200, "f_id": "node\/649588159", "railway": null, "name": "?os. Mihai Bravu", "ref": "70, 79, 311, N104", "shelter": null, "bus": "yes", "designatio": null, "wheelchair": null, "trolleybus": "yes", "x": 26.138371, "y": 44.424384, "nume_mod": "Sos. Mihai Bravu", "den_ratb": "SOSEAUA MIHAI BRAVU", "osm_id": "?os. Mihai Bravu-199", "ratb_id": "SOSEAUA MIHAI BRAVU-199" }, "geometry": { "type": "Point", "coordinates": [ 26.138370999721928, 44.424383899997054 ] } },